{"type": "FeatureCollection", "features": [{"type": "Feature", "geometry": {"type": "Point", "coordinates": [47.18787, -122.46649]}, "properties": {"Name": "Bates Technical College Library Downtown Campus", "Address": "2201 S 78th St, Room E201", "County": "Pierce", "City": "Bates Technical College Library Downtown Campus", "URL": "http://www.batestech.edu/library"}}, {"type": "Feature", "geometry": {"type": "Point", "coordinates": [47.388627, -122.301434]}, "properties": {"Name": "Highline College Library", "Address": "MS 25-4", "County": "King", "City": "Highline College Library", "URL": "http://library.highline.edu"}}, {"type": "Feature", "geometry": {"type": "Point", "coordinates": [48.43838, -122.31288]}, "properties": {"Name": "Skagit Valley College, Norwood Cole Library", "Address": "2405 E College Way", "County": "Skagit", "City": "Skagit Valley College, Norwood Cole Library", "URL": "http://library.skagit.edu"}}, {"type": "Feature", "geometry": {"type": "Point", "coordinates": [48.28909, -122.63513]}, "properties": {"Name": "Skagit Valley College, Norwood Cole Library", "Address": "1900 SE Pioneer Way", "County": "Island", "City": "Skagit Valley College, Norwood Cole Library", "URL": "library.skagit.edu"}}, {"type": "Feature", "geometry": {"type": "Point", "coordinates": [47.02372, -122.92952]}, "properties": {"Name": "South Puget Sound Community College Library", "Address": "2011 Mottman Rd SW", "County": "Thurston", "City": "South Puget Sound Community College Library", "URL": "https://spscc.edu/library"}}, {"type": "Feature", "geometry": {"type": "Point", "coordinates": [47.67479, -117.46955]}, "properties": {"Name": "Spokane Falls Community College", "Address": "3410 W Fort George Wright Drive", "County": "Spokane", "City": "Spokane Falls Community College", "URL": "http://sfcc.spokane.edu/For-Our-Students/Libraries"}}, {"type": "Feature", "geometry": {"type": "Point", "coordinates": [47.24649, -122.5213]}, "properties": {"Name": "Tacoma Community College", "Address": "6501 S 19th Street, Building 7", "County": "Pierce", "City": "Tacoma Community College", "URL": "http://tacomacc.libguides.com/TCCLibrary"}}, {"type": "Feature", "geometry": {"type": "Point", "coordinates": [47.18408, -119.3258]}, "properties": {"Name": "Big Bend Community College", "Address": "7662 Chanute St., Building 1800", "County": "Grant", "City": "Big Bend Community College", "URL": "http://libguides.bigbend.edu/home"}}, {"type": "Feature", "geometry": {"type": "Point", "coordinates": [45.63433, -122.65257]}, "properties": {"Name": "Cannell Library", "Address": "1933 Fort Vancouver Way", "County": "Clark", "City": "Cannell Library", "URL": "http://library.clark.edu"}}, {"type": "Feature", "geometry": {"type": "Point", "coordinates": [47.58674, -122.1506]}, "properties": {"Name": "Bellevue College", "Address": "3000 Landerholm Circle SE D260", "County": "King", "City": "Bellevue College", "URL": "https://bellevuecollege.edu/lmc"}}, {"type": "Feature", "geometry": {"type": "Point", "coordinates": [45.61676, -122.48194]}, "properties": {"Name": "Cannell Library", "Address": "18700 SE Mill Plain Blvd.", "County": "Clark", "City": "Cannell Library", "URL": "library.clark.edu"}}, {"type": "Feature", "geometry": {"type": "Point", "coordinates": [47.25196, -122.44649]}, "properties": {"Name": "Bates Technical College Library Downtown Campus", "Address": "Bates Technical College, 1101 S Yakima Ave, Tacoma", "County": "Pierce", "City": "Bates Technical College Library Downtown Campus", "URL": "http://www.batestech.edu/Library"}}, {"type": "Feature", "geometry": {"type": "Point", "coordinates": [46.07895, -118.2835]}, "properties": {"Name": "Walla Walla Community College Library", "Address": "500 Tausick Way", "County": "Walla Walla", "City": "Walla Walla Community College Library", "URL": "https://www.wwcc.edu/library/"}}, {"type": "Feature", "geometry": {"type": "Point", "coordinates": [47.43053, -120.33485]}, "properties": {"Name": "John A. Brown Library", "Address": "1300 5th St", "County": "Chelan", "City": "John A. Brown Library", "URL": "http://www.wvc.edu/library/"}}, {"type": "Feature", "geometry": {"type": "Point", "coordinates": [48.41232, -119.53101]}, "properties": {"Name": "John A. Brown Library", "Address": "116 West Apple Ave", "County": "Okanogan", "City": "John A. Brown Library", "URL": "http://www.wvc.edu/library"}}, {"type": "Feature", "geometry": {"type": "Point", "coordinates": [48.79509, -122.49378]}, "properties": {"Name": "Whatcom Community College", "Address": "237 W Kellogg Rd", "County": "Whatcom", "City": "Whatcom Community College", "URL": "http://library.whatcom.edu"}}, {"type": "Feature", "geometry": {"type": "Point", "coordinates": [46.586982, -120.529504]}, "properties": {"Name": "Yakima Valley College Library", "Address": "S 16th Ave & Nob Hill Blvd", "County": "Yakima", "City": "Yakima Valley College Library", "URL": "https://www.yvcc.edu/services/library/"}}, {"type": "Feature", "geometry": {"type": "Point", "coordinates": [46.25598, -119.91042]}, "properties": {"Name": "Yakima Valley College Library", "Address": "500 W. Main Street", "County": "Yakima", "City": "Yakima Valley College Library", "URL": "http://www.grandview.wa.us/departments/library/"}}, {"type": "Feature", "geometry": {"type": "Point", "coordinates": [47.8186, -122.33069]}, "properties": {"Name": "Edmonds College", "Address": "20000 68th Ave W", "County": "Snohomish", "City": "Edmonds College", "URL": "http://www.edcc.edu/library/"}}, {"type": "Feature", "geometry": {"type": "Point", "coordinates": [48.76627, -122.5101]}, "properties": {"Name": "Bellingham Technical College Library", "Address": "3028 Lindbergh Ave", "County": "Whatcom", "City": "Bellingham Technical College Library", "URL": "https://www.btc.edu/Library"}}, {"type": "Feature", "geometry": {"type": "Point", "coordinates": [47.22908, -123.11136]}, "properties": {"Name": "Olympic College, Haselwood Library", "Address": "937 W Alpine Way", "County": "Mason", "City": "Olympic College, Haselwood Library", "URL": "http://libguides.olympic.edu/index"}}, {"type": "Feature", "geometry": {"type": "Point", "coordinates": [47.70305, -122.33376]}, "properties": {"Name": "Seattle Colleges Library Technical Services", "Address": "9600 College Way N", "County": "King", "City": "Seattle Colleges Library Technical Services", "URL": "http://libguides.northseattle.edu/welcome"}}, {"type": "Feature", "geometry": {"type": "Point", "coordinates": [47.61689, -122.32135]}, "properties": {"Name": "Seattle Colleges Library Technical Services", "Address": "1701 Broadway, 2BE2101", "County": "King", "City": "Seattle Colleges Library Technical Services", "URL": "http://www.seattlecentral.edu/library"}}, {"type": "Feature", "geometry": {"type": "Point", "coordinates": [47.61438, -122.32174]}, "properties": {"Name": "Seattle Colleges Library Technical Services", "Address": "1500 Harvard Ave", "County": "King", "City": "Seattle Colleges Library Technical Services", "URL": "http://www.seattlecolleges.edu"}}, {"type": "Feature", "geometry": {"type": "Point", "coordinates": [47.54699, -122.35307]}, "properties": {"Name": "Seattle Colleges Library Technical Services", "Address": "6000 16th Ave SW", "County": "King", "City": "Seattle Colleges Library Technical Services", "URL": "http://www.southseattle.edu/library/"}}, {"type": "Feature", "geometry": {"type": "Point", "coordinates": [47.48932, -122.17827]}, "properties": {"Name": "Renton Technical College", "Address": "3000 NE 4th Street", "County": "King", "City": "Renton Technical College", "URL": "http://www.rtc.edu/library"}}, {"type": "Feature", "geometry": {"type": "Point", "coordinates": [47.15815, -122.27393]}, "properties": {"Name": "Pierce College - Fort Steilacoom", "Address": "1601 39th Ave SE", "County": "Pierce", "City": "Pierce College - Fort Steilacoom", "URL": "https://www.pierce.ctc.edu/library"}}, {"type": "Feature", "geometry": {"type": "Point", "coordinates": [47.17613, -122.57186]}, "properties": {"Name": "Pierce College - Fort Steilacoom", "Address": "9401 Farwest Dr SW", "County": "Pierce", "City": "Pierce College - Fort Steilacoom", "URL": "https://www.pierce.ctc.edu/library"}}, {"type": "Feature", "geometry": {"type": "Point", "coordinates": [47.74616, -122.35593]}, "properties": {"Name": "Shoreline Community College Library", "Address": "16101 Greenwood Ave N", "County": "King", "City": "Shoreline Community College Library", "URL": "http://www.shoreline.edu/library"}}, {"type": "Feature", "geometry": {"type": "Point", "coordinates": [47.76549, -122.66264]}, "properties": {"Name": "Olympic College, Haselwood Library", "Address": "1000 Olympic College Way", "County": "Kitsap", "City": "Olympic College, Haselwood Library", "URL": "http://libguides.olympic.edu/index"}}, {"type": "Feature", "geometry": {"type": "Point", "coordinates": [47.67218, -117.36338]}, "properties": {"Name": "Spokane Community College", "Address": "1810 N Greene St", "County": "Spokane", "City": "Spokane Community College", "URL": "http://scc.spokane.edu/For-Our-Students/Libraries"}}, {"type": "Feature", "geometry": {"type": "Point", "coordinates": [47.57567, -122.63579]}, "properties": {"Name": "Olympic College, Haselwood Library", "Address": "1600 Chester Ave", "County": "Kitsap", "City": "Olympic College, Haselwood Library", "URL": "http://libguides.olympic.edu/index/"}}, {"type": "Feature", "geometry": {"type": "Point", "coordinates": [46.14286, -122.93791]}, "properties": {"Name": "Lower Columbia College Library & Learning Commons", "Address": "1600 Maple St", "County": "Cowlitz", "City": "Lower Columbia College Library & Learning Commons", "URL": "http://lowercolumbia.edu/library/index.php"}}, {"type": "Feature", "geometry": {"type": "Point", "coordinates": [47.705257, -122.168056]}, "properties": {"Name": "Lake Washington Institute of Technology", "Address": "LWTECH Library Learning Commons", "County": "King", "City": "Lake Washington Institute of Technology", "URL": "http://www.lwtech.edu/campus-life/library/"}}, {"type": "Feature", "geometry": {"type": "Point", "coordinates": [47.31247, -122.18022]}, "properties": {"Name": "Green River College", "Address": "12401 SE 320th St", "County": "King", "City": "Green River College", "URL": "http://www.greenriver.edu/library"}}, {"type": "Feature", "geometry": {"type": "Point", "coordinates": [46.95333, -123.80215]}, "properties": {"Name": "John Spellman Library at Grays Harbor College", "Address": "1620 Edward P. Smith Dr", "County": "Grays harbor", "City": "John Spellman Library at Grays Harbor College", "URL": "http://www.ghc.edu/library"}}, {"type": "Feature", "geometry": {"type": "Point", "coordinates": [48.00687, -122.20578]}, "properties": {"Name": "Everett Community College Library", "Address": "2000 Tower Street", "County": "Snohomish", "City": "Everett Community College Library", "URL": "http://everettcc.edu/library"}}, {"type": "Feature", "geometry": {"type": "Point", "coordinates": [46.2778, -119.27887]}, "properties": {"Name": "Columbia Basin College", "Address": "891 Northgate Dr", "County": "Benton", "City": "Columbia Basin College", "URL": "http://www.columbiabasin.edu/medicallibrary"}}, {"type": "Feature", "geometry": {"type": "Point", "coordinates": [46.25233, -119.12696]}, "properties": {"Name": "Columbia Basin College", "Address": "2600 N 20th Ave", "County": "Franklin", "City": "Columbia Basin College", "URL": "http://www.columbiabasin.edu/library"}}, {"type": "Feature", "geometry": {"type": "Point", "coordinates": [48.09982, -123.41487]}, "properties": {"Name": "Peninsula College Library/Media Center", "Address": "1502 E. Lauridsen Blvd.", "County": "Clallam", "City": "Peninsula College Library/Media Center", "URL": "http://www.pencol.edu/library"}}, {"type": "Feature", "geometry": {"type": "Point", "coordinates": [47.67598, -117.47368]}, "properties": {"Name": "Mukogawa Ft. Wright Institute", "Address": "4000 W Randolph Rd", "County": "Spokane", "City": "Mukogawa Ft. Wright Institute", "URL": "http://www.mfwi.org/library"}}, {"type": "Feature", "geometry": {"type": "Point", "coordinates": [47.60045, -122.33131]}, "properties": {"Name": "Pinchot University", "Address": "220 Second Avenue S, 4th Floor", "County": "King", "City": "Pinchot University", "URL": "http://pinchot.edu"}}, {"type": "Feature", "geometry": {"type": "Point", "coordinates": [46.72985, -117.15829]}, "properties": {"Name": "Washington State University Libraries", "Address": "PO Box 645610", "County": "Whitman", "City": "Washington State University Libraries", "URL": "http://libraries.wsu.edu"}}, {"type": "Feature", "geometry": {"type": "Point", "coordinates": [47.656736, -122.305256]}, "properties": {"Name": "University of Washington Libraries", "Address": "C306 Padelford", "County": "King", "City": "University of Washington Libraries", "URL": "http://www.lib.washington.edu/math"}}, {"type": "Feature", "geometry": {"type": "Point", "coordinates": [47.25244, -122.43882]}, "properties": {"Name": "Northwest College of Art & Design", "Address": "1126 Pacific Ave", "County": "Pierce", "City": "Northwest College of Art & Design", "URL": "http://www.ncad.edu"}}, {"type": "Feature", "geometry": {"type": "Point", "coordinates": [48.545045, -123.014633]}, "properties": {"Name": "University of Washington Libraries", "Address": "Box 352900", "County": "King", "City": "University of Washington Libraries", "URL": "http://www.lib.washington.edu/fhl/"}}, {"type": "Feature", "geometry": {"type": "Point", "coordinates": [46.04807, -118.38953]}, "properties": {"Name": "Walla Walla University Libraries", "Address": "104 S College Ave", "County": "Walla Walla", "City": "Walla Walla University Libraries", "URL": "https://library.wallawalla.edu"}}, {"type": "Feature", "geometry": {"type": "Point", "coordinates": [45.512196, -122.556884]}, "properties": {"Name": "Walla Walla University Libraries", "Address": "10345 SE Market St", "County": "Clark", "City": "Walla Walla University Libraries", "URL": "https://wallawalla.edu/academics/libraries/portland-library/"}}, {"type": "Feature", "geometry": {"type": "Point", "coordinates": [47.659674, -122.306496]}, "properties": {"Name": "University of Washington Libraries", "Address": "145 Hutchinson", "County": "King", "City": "University of Washington Libraries", "URL": "http://www.lib.washington.edu/drama/"}}, {"type": "Feature", "geometry": {"type": "Point", "coordinates": [47.66134, -117.40568]}, "properties": {"Name": "Washington State University Libraries", "Address": "600 N Riverpoint Blvd", "County": "Spokane", "City": "Washington State University Libraries", "URL": "http://spokane.wsu.edu/services2/library/"}}, {"type": "Feature", "geometry": {"type": "Point", "coordinates": [47.61065, -122.31711]}, "properties": {"Name": "Seattle University Law Library", "Address": "901 12th Avenue Sullivan Hall", "County": "King", "City": "Seattle University Law Library", "URL": "https://law.seattleu.edu/library"}}, {"type": "Feature", "geometry": {"type": "Point", "coordinates": [46.72985, -117.15829]}, "properties": {"Name": "Washington State University Libraries", "Address": "PO Box 643200", "County": "Whitman", "City": "Washington State University Libraries", "URL": "http://libraries.wsu.edu"}}, {"type": "Feature", "geometry": {"type": "Point", "coordinates": [47.7302, -122.25136]}, "properties": {"Name": "Bastyr University Library", "Address": "14500 Juanita Dr NE", "County": "King", "City": "Bastyr University Library", "URL": "http://www.bastyr.edu/library"}}, {"type": "Feature", "geometry": {"type": "Point", "coordinates": [46.33032, -119.26403]}, "properties": {"Name": "Washington State University Libraries", "Address": "2710 Crimson Way", "County": "Benton", "City": "Washington State University Libraries", "URL": "http://tricity.wsu.edu/Library/"}}, {"type": "Feature", "geometry": {"type": "Point", "coordinates": [47.656288, -122.308014]}, "properties": {"Name": "University of Washington Libraries", "Address": "322 Gowen Hall", "County": "King", "City": "University of Washington Libraries", "URL": "http://www.lib.washington.edu/east-asia/"}}, {"type": "Feature", "geometry": {"type": "Point", "coordinates": [47.654633, -122.304502]}, "properties": {"Name": "University of Washington Libraries", "Address": "Engineering Library Building", "County": "King", "City": "University of Washington Libraries", "URL": "http://www.lib.washington.edu/engineering/"}}, {"type": "Feature", "geometry": {"type": "Point", "coordinates": [47.65749, -122.19578]}, "properties": {"Name": "Northwest University", "Address": "5520 108th Ave NE", "County": "King", "City": "Northwest University", "URL": "http://library.northwestu.edu"}}, {"type": "Feature", "geometry": {"type": "Point", "coordinates": [47.66134, -117.40568]}, "properties": {"Name": "Eastern Washington University Libraries", "Address": "600 N Riverpoint Blvd", "County": "Spokane", "City": "Eastern Washington University Libraries", "URL": "https://spokane.wsu.edu/library/"}}, {"type": "Feature", "geometry": {"type": "Point", "coordinates": [47.5017, -117.5843]}, "properties": {"Name": "Eastern Washington University Libraries", "Address": "320 Media Lane", "County": "Spokane", "City": "Eastern Washington University Libraries", "URL": "http://www.ewu.edu/library"}}, {"type": "Feature", "geometry": {"type": "Point", "coordinates": [47.66829, -117.40302]}, "properties": {"Name": "Gonzaga University", "Address": "502 E Boone Ave", "County": "Spokane", "City": "Gonzaga University", "URL": "http://www.foley.gonzaga.edu"}}, {"type": "Feature", "geometry": {"type": "Point", "coordinates": [47.66338, -117.40027]}, "properties": {"Name": "Gonzaga University", "Address": "721 N Cincinnati St", "County": "Spokane", "City": "Gonzaga University", "URL": "http://www.gonzaga.edu/school-of-law/academics/chastek-library"}}, {"type": "Feature", "geometry": {"type": "Point", "coordinates": [46.3758, -120.39599]}, "properties": {"Name": "Heritage University", "Address": "3240 Fort Rd", "County": "Yakima", "City": "Heritage University", "URL": "http://libguides.heritage.edu"}}, {"type": "Feature", "geometry": {"type": "Point", "coordinates": [47.657635, -122.305804]}, "properties": {"Name": "University of Washington Libraries", "Address": "113 Music Bldg", "County": "King", "City": "University of Washington Libraries", "URL": "http://www.lib.washington.edu/music/"}}, {"type": "Feature", "geometry": {"type": "Point", "coordinates": [47.07318, -122.97908]}, "properties": {"Name": "The Evergreen State College", "Address": "2700 Evergreen Parkway NW", "County": "Thurston", "City": "The Evergreen State College", "URL": "http://www.evergreen.edu/library"}}, {"type": "Feature", "geometry": {"type": "Point", "coordinates": [47.656378, -122.310804]}, "properties": {"Name": "University of Washington Libraries", "Address": "4060 George Washington Lane", "County": "King", "City": "University of Washington Libraries", "URL": "http://www.lib.washington.edu/ougl/"}}, {"type": "Feature", "geometry": {"type": "Point", "coordinates": [47.65576, -122.308267]}, "properties": {"Name": "University of Washington Libraries", "Address": "Allen Library Building", "County": "King", "City": "University of Washington Libraries", "URL": "http://www.lib.washington.edu/suzzallo"}}, {"type": "Feature", "geometry": {"type": "Point", "coordinates": [47.65576, -122.308267]}, "properties": {"Name": "University of Washington Libraries", "Address": "Suzzallo Library Building", "County": "King", "City": "University of Washington Libraries", "URL": "http://www.lib.washington.edu/suzzallo"}}, {"type": "Feature", "geometry": {"type": "Point", "coordinates": [47.24416, -122.43746]}, "properties": {"Name": "University of Washington Libraries", "Address": "1900 Commerce St", "County": "Pierce", "City": "University of Washington Libraries", "URL": "http://tacoma.uw.edu/library"}}, {"type": "Feature", "geometry": {"type": "Point", "coordinates": [47.650819, -122.309334]}, "properties": {"Name": "University of Washington Libraries", "Address": "T-334 Health Sciences Building", "County": "King", "City": "University of Washington Libraries", "URL": "http://hsl.uw.edu/"}}, {"type": "Feature", "geometry": {"type": "Point", "coordinates": [47.75977, -122.19144]}, "properties": {"Name": "University of Washington Libraries", "Address": "18225 Campus Way NE", "County": "King", "City": "University of Washington Libraries", "URL": "http://library.uwb.edu"}}, {"type": "Feature", "geometry": {"type": "Point", "coordinates": [45.72499, -122.63413]}, "properties": {"Name": "Washington State University Libraries", "Address": "14204 NE Salmon Creek Ave", "County": "Clark", "City": "Washington State University Libraries", "URL": "http://library.vancouver.wsu.edu"}}, {"type": "Feature", "geometry": {"type": "Point", "coordinates": [47.17645, -122.49714]}, "properties": {"Name": "Clover Park Technical College", "Address": "4500 Steilacoom Blvd SW", "County": "Pierce", "City": "Clover Park Technical College", "URL": "http://www.cptc.edu/library"}}, {"type": "Feature", "geometry": {"type": "Point", "coordinates": [47.61815, -122.33628]}, "properties": {"Name": "Cornish College of the Arts", "Address": "1000 Lenora Street", "County": "King", "City": "Cornish College of the Arts", "URL": "http://www.cornish.edu/library/"}}, {"type": "Feature", "geometry": {"type": "Point", "coordinates": [47.64962, -122.36265]}, "properties": {"Name": "Seattle Pacific University Library", "Address": "3307 3rd Ave W, Ste 306", "County": "King", "City": "Seattle Pacific University Library", "URL": "http://spu.edu/library"}}, {"type": "Feature", "geometry": {"type": "Point", "coordinates": [47.61581, -122.34615]}, "properties": {"Name": "Antioch University Seattle", "Address": "2400 Third Avenue Suite 200", "County": "King", "City": "Antioch University Seattle", "URL": "https://www.antioch.edu/seattle/resources/students/library/"}}, {"type": "Feature", "geometry": {"type": "Point", "coordinates": [46.71531, -122.96066]}, "properties": {"Name": "Centralia College", "Address": "600 Centralia College Blvd", "County": "Lewis", "City": "Centralia College", "URL": "https://www.centralia.edu/library/"}}, {"type": "Feature", "geometry": {"type": "Point", "coordinates": [47.81504, -122.326926]}, "properties": {"Name": "Central Washington University", "Address": "Snoqualmie Hall, #109", "County": "Snohomish", "City": "Central Washington University", "URL": "http://www.lib.cwu.edu/lynnwood-campus-library"}}, {"type": "Feature", "geometry": {"type": "Point", "coordinates": [47.61734, -122.34433]}, "properties": {"Name": "City University of Seattle Library and Learning Resource Center", "Address": "521 Wall Street, Suite 100", "County": "King", "City": "City University of Seattle Library and Learning Resource Center", "URL": "https://library.cityu.edu/"}}, {"type": "Feature", "geometry": {"type": "Point", "coordinates": [47.03971, -122.8224]}, "properties": {"Name": "Saint Martin's University", "Address": "5000 Abbey Way SE", "County": "Thurston", "City": "Saint Martin's University", "URL": "http://www.stmartin.edu/library"}}, {"type": "Feature", "geometry": {"type": "Point", "coordinates": [47.387588, -122.303243]}, "properties": {"Name": "Central Washington University", "Address": "Higher Education Center, Building 29, #360", "County": "King", "City": "Central Washington University", "URL": "http://www.lib.cwu.edu/offcampus/eucs/seatac.html"}}, {"type": "Feature", "geometry": {"type": "Point", "coordinates": [46.729403, -117.161623]}, "properties": {"Name": "Washington State University Libraries", "Address": "170 Wegner Hall", "County": "Whitman", "City": "Washington State University Libraries", "URL": "http://libraries.wsu.edu"}}, {"type": "Feature", "geometry": {"type": "Point", "coordinates": [48.73718, -122.48768]}, "properties": {"Name": "Western Washington University", "Address": "516 High St.", "County": "Whatcom", "City": "Western Washington University", "URL": "https://library.wwu.edu/"}}, {"type": "Feature", "geometry": {"type": "Point", "coordinates": [46.99927, -120.55195]}, "properties": {"Name": "Central Washington University", "Address": "400 E. University Way, MS 7548", "County": "kittitas", "City": "Central Washington University", "URL": "http://www.lib.cwu.edu"}}, {"type": "Feature", "geometry": {"type": "Point", "coordinates": [47.658093, -122.290917]}, "properties": {"Name": "Elisabeth C. Miller Library", "Address": "Center for Urban Horticulture", "County": "King", "City": "Elisabeth C. Miller Library", "URL": "http://www.millerlibrary.org"}}, {"type": "Feature", "geometry": {"type": "Point", "coordinates": [47.608863, -122.32102]}, "properties": {"Name": "Seattle University", "Address": "Seattle University", "County": "King", "City": "Seattle University", "URL": "https://www.seattleu.edu//library/"}}, {"type": "Feature", "geometry": {"type": "Point", "coordinates": [47.264325, -122.481951]}, "properties": {"Name": "University of Puget Sound", "Address": "Collins Memorial Library", "County": "Pierce", "City": "University of Puget Sound", "URL": "http://www.pugetsound.edu/academics/academic-resources/collins-memorial-library/"}}, {"type": "Feature", "geometry": {"type": "Point", "coordinates": [47.65037, -122.30726]}, "properties": {"Name": "University of Washington Libraries", "Address": "Box 352900", "County": "King", "City": "University of Washington Libraries", "URL": "http://www.lib.washington.edu"}}, {"type": "Feature", "geometry": {"type": "Point", "coordinates": [48.73718, -122.48768]}, "properties": {"Name": "Western Washington University", "Address": "516 High St", "County": "Whatcom", "City": "Western Washington University", "URL": "http://www.ac.wwu.edu/~musiclib"}}, {"type": "Feature", "geometry": {"type": "Point", "coordinates": [47.659072, -122.308396]}, "properties": {"Name": "University of Washington Libraries", "Address": "Paccar Hall, 1st Floor", "County": "King", "City": "University of Washington Libraries", "URL": "http://www.lib.washington.edu/business"}}, {"type": "Feature", "geometry": {"type": "Point", "coordinates": [46.07088, -118.32958]}, "properties": {"Name": "Penrose Library", "Address": "345 Boyer Ave", "County": "Walla Walla", "City": "Penrose Library", "URL": "https://library.whitman.edu"}}, {"type": "Feature", "geometry": {"type": "Point", "coordinates": [47.75098, -117.40615]}, "properties": {"Name": "Whitworth University Library", "Address": "300 W Hawthorne Rd", "County": "Spokane", "City": "Whitworth University Library", "URL": "http://www.whitworth.edu/library"}}, {"type": "Feature", "geometry": {"type": "Point", "coordinates": [47.655018, -122.313317]}, "properties": {"Name": "University of Washington Libraries", "Address": "334 Gould Hall", "County": "King", "City": "University of Washington Libraries", "URL": "http://www.lib.washington.edu/be/"}}, {"type": "Feature", "geometry": {"type": "Point", "coordinates": [47.61331, -122.35094]}, "properties": {"Name": "The Seattle School of Theology & Psychology", "Address": "2501 Elliott Avenue", "County": "King", "City": "The Seattle School of Theology & Psychology", "URL": "http://theseattleschool.edu/library"}}, {"type": "Feature", "geometry": {"type": "Point", "coordinates": [47.14613, -122.44637]}, "properties": {"Name": "Pacific Lutheran University", "Address": "12180 Park Avenue S", "County": "Pierce", "City": "Pacific Lutheran University", "URL": "http://www.plu.edu/library"}}, {"type": "Feature", "geometry": {"type": "Point", "coordinates": [47.658179, -122.306839]}, "properties": {"Name": "University of Washington Libraries", "Address": "101 Art Bldg", "County": "King", "City": "University of Washington Libraries", "URL": "http://www.lib.washington.edu/art/"}}, {"type": "Feature", "geometry": {"type": "Point", "coordinates": [46.60233, -120.45769]}, "properties": {"Name": "Pacific Northwest University of Health Sciences", "Address": "200 University Parkway", "County": "Yakima", "City": "Pacific Northwest University of Health Sciences", "URL": "https://www.pnwu.edu/inside-pnwu/offices-and-departments/library"}}, {"type": "Feature", "geometry": {"type": "Point", "coordinates": [48.21727, -122.685257]}, "properties": {"Name": "Island County Public Law Library", "Address": "101 NE Sixth St, Room 204", "County": "Island", "City": "Island County Public Law Library", "URL": "https://www.islandcountywa.gov/SuperiorCourt/Pages/LawLibrary.aspx"}}, {"type": "Feature", "geometry": {"type": "Point", "coordinates": [47.28016, -122.51717]}, "properties": {"Name": "Faith International University & Faith Seminary", "Address": "3504 N. Pearl Street", "County": "Pierce", "City": "Faith International University & Faith Seminary", "URL": "http://faithseminary.edu/library/"}}, {"type": "Feature", "geometry": {"type": "Point", "coordinates": [47.557373, -122.643889]}, "properties": {"Name": "PSNS & IMF Command Library", "Address": "Code 1143 BLDG 850/2", "County": "Kitsap", "City": "PSNS & IMF Command Library", "URL": "nan"}}, {"type": "Feature", "geometry": {"type": "Point", "coordinates": [47.607256, -122.331685]}, "properties": {"Name": "US Courts Library", "Address": "U.S. Courthouse, Rm 19105", "County": "King", "City": "US Courts Library", "URL": "http://www.wawd.uscourts.gov/"}}, {"type": "Feature", "geometry": {"type": "Point", "coordinates": [46.88398, -117.36448]}, "properties": {"Name": "Whitman County Law Library", "Address": "Whitman County Courthouse", "County": "Whitman", "City": "Whitman County Law Library", "URL": "nan"}}, {"type": "Feature", "geometry": {"type": "Point", "coordinates": [46.60524, -120.50872]}, "properties": {"Name": "Yakima County Law Library", "Address": "18 East Lincoln Ave", "County": "Yakima", "City": "Yakima County Law Library", "URL": "nan"}}, {"type": "Feature", "geometry": {"type": "Point", "coordinates": [46.99699, -120.54939]}, "properties": {"Name": "Kittitas County Law Library", "Address": "205 W 5th Ave, Rm 172", "County": "kittitas", "City": "Kittitas County Law Library", "URL": "nan"}}, {"type": "Feature", "geometry": {"type": "Point", "coordinates": [47.53709, -122.63807]}, "properties": {"Name": "Kitsap County Law Library", "Address": "614 Division St", "County": "Kitsap", "City": "Kitsap County Law Library", "URL": "http://www.kitsaplawlibrary.com/"}}, {"type": "Feature", "geometry": {"type": "Point", "coordinates": [45.82113, -120.824173]}, "properties": {"Name": "Klickitat County Law Library", "Address": "205 S Columbus Ave # 207, Goldendale, WA 98620", "County": "Klickitat", "City": "Klickitat County Law Library", "URL": "nan"}}, {"type": "Feature", "geometry": {"type": "Point", "coordinates": [46.661532, -122.969703]}, "properties": {"Name": "Lewis County Law Library", "Address": "2nd Floor", "County": "Lewis", "City": "Lewis County Law Library", "URL": "nan"}}, {"type": "Feature", "geometry": {"type": "Point", "coordinates": [47.65532, -118.14785]}, "properties": {"Name": "Lincoln County Law Library", "Address": "450 Logan St", "County": "Lincoln", "City": "Lincoln County Law Library", "URL": "nan"}}, {"type": "Feature", "geometry": {"type": "Point", "coordinates": [47.215824, -123.103219]}, "properties": {"Name": "Mason County Law Library", "Address": "County Courthouse", "County": "Mason", "City": "Mason County Law Library", "URL": "nan"}}, {"type": "Feature", "geometry": {"type": "Point", "coordinates": [48.75435, -122.48034]}, "properties": {"Name": "Whatcom County Law Library", "Address": "311 Grand Avenue, Suite B6", "County": "Whatcom", "City": "Whatcom County Law Library", "URL": "http://www.whatcomcounty.us/306/Law-Library"}}, {"type": "Feature", "geometry": {"type": "Point", "coordinates": [48.17888, -117.05864]}, "properties": {"Name": "Pend Oreille County Law Library", "Address": "229 S. Garden Avenue", "County": "Pend Oreille", "City": "Pend Oreille County Law Library", "URL": "http://www.pendoreilleco.org"}}, {"type": "Feature", "geometry": {"type": "Point", "coordinates": [46.66405, -123.80975]}, "properties": {"Name": "Pacific County Law Library", "Address": "300 Memorial Drive", "County": "Pacific", "City": "Pacific County Law Library", "URL": "http://co.pacific.wa.us/courts/superior/"}}, {"type": "Feature", "geometry": {"type": "Point", "coordinates": [48.365248, -119.582142]}, "properties": {"Name": "Okanogan County Law Library", "Address": "Superior Court", "County": "Okanogan", "City": "Okanogan County Law Library", "URL": "nan"}}, {"type": "Feature", "geometry": {"type": "Point", "coordinates": [47.036918, -122.90545]}, "properties": {"Name": "Washington State Law Library", "Address": "Temple of Justice", "County": "Thurston", "City": "Washington State Law Library", "URL": "http://www.courts.wa.gov/library/"}}, {"type": "Feature", "geometry": {"type": "Point", "coordinates": [46.25233, -119.12696]}, "properties": {"Name": "Benton/Franklin County Law Library", "Address": "2600 N. 20th Avenue", "County": "Franklin", "City": "Benton/Franklin County Law Library", "URL": "www.columbiabasin.edu/lawlibrary"}}, {"type": "Feature", "geometry": {"type": "Point", "coordinates": [45.69447, -121.88376]}, "properties": {"Name": "Skamania County Law Library", "Address": "240 NW Vancouver Avenue", "County": "Skamania", "City": "Skamania County Law Library", "URL": "nan"}}, {"type": "Feature", "geometry": {"type": "Point", "coordinates": [47.66483, -117.429372]}, "properties": {"Name": "Spokane County Law Library", "Address": "Spokane County Courthouse, 2nd floor", "County": "Spokane", "City": "Spokane County Law Library", "URL": "http://www.spokanecounty.org/lawlibrary"}}, {"type": "Feature", "geometry": {"type": "Point", "coordinates": [47.977126, -122.206545]}, "properties": {"Name": "Snohomish County Law Library", "Address": "Mail Stop 703", "County": "Snohomish", "City": "Snohomish County Law Library", "URL": "http://www.co.snohomish.wa.us"}}, {"type": "Feature", "geometry": {"type": "Point", "coordinates": [47.385419, -122.238985]}, "properties": {"Name": "King County Law Library", "Address": "1N Regional Justice Center", "County": "King", "City": "King County Law Library", "URL": "http://www.kcll.org"}}, {"type": "Feature", "geometry": {"type": "Point", "coordinates": [47.658345, -117.426195]}, "properties": {"Name": "US Courts Library", "Address": "Thomas S. Foley US Courthouse, Ste 650", "County": "Spokane", "City": "US Courts Library", "URL": "http://www.waed.uscourts.gov/"}}, {"type": "Feature", "geometry": {"type": "Point", "coordinates": [48.41777, -122.33678]}, "properties": {"Name": "Skagit County Law Library", "Address": "205 W Kincaid St, Ste 104", "County": "Skagit", "City": "Skagit County Law Library", "URL": "http://www.skagitcounty.net"}}, {"type": "Feature", "geometry": {"type": "Point", "coordinates": [47.0294, -122.91225]}, "properties": {"Name": "Thurston County Law Library", "Address": "2000 Lakeridge Dr SW, Bldg 2", "County": "Thurston", "City": "Thurston County Law Library", "URL": "nan"}}, {"type": "Feature", "geometry": {"type": "Point", "coordinates": [46.20281, -123.38499]}, "properties": {"Name": "Wahkiakum County Law Library", "Address": "64 Main St", "County": "Wahkiakum", "City": "Wahkiakum County Law Library", "URL": "nan"}}, {"type": "Feature", "geometry": {"type": "Point", "coordinates": [46.33964, -117.05038]}, "properties": {"Name": "Asotin County Law Library", "Address": "135 Second St", "County": "Asotin", "City": "Asotin County Law Library", "URL": "nan"}}, {"type": "Feature", "geometry": {"type": "Point", "coordinates": [47.422305, -120.316162]}, "properties": {"Name": "Chelan County Law Library", "Address": "Chelan County Courthouse", "County": "Chelan", "City": "Chelan County Law Library", "URL": "http://websrv/scj/scj_library.htm"}}, {"type": "Feature", "geometry": {"type": "Point", "coordinates": [48.11644, -123.43222]}, "properties": {"Name": "Clallam County Law Library", "Address": "223 E Fourth St, Ste 17", "County": "Clallam", "City": "Clallam County Law Library", "URL": "nan"}}, {"type": "Feature", "geometry": {"type": "Point", "coordinates": [45.63045, -122.67758]}, "properties": {"Name": "Clark County Law Library", "Address": "1200 Franklin Street", "County": "Clark", "City": "Clark County Law Library", "URL": "https://www.clark.wa.gov/law-library"}}, {"type": "Feature", "geometry": {"type": "Point", "coordinates": [48.535963, -123.019029]}, "properties": {"Name": "San Juan County Law Library", "Address": "San Juan County Courthouse", "County": "San Juan", "City": "San Juan County Law Library", "URL": "nan"}}, {"type": "Feature", "geometry": {"type": "Point", "coordinates": [46.143171, -122.91697]}, "properties": {"Name": "Cowlitz County Law Library", "Address": "Hall of Justice, Second Floor", "County": "Cowlitz", "City": "Cowlitz County Law Library", "URL": "https://www.cowlitzsuperiorcourt.us/"}}, {"type": "Feature", "geometry": {"type": "Point", "coordinates": [47.646139, -120.068025]}, "properties": {"Name": "Douglas County Law Library", "Address": "County Courthouse", "County": "Douglas", "City": "Douglas County Law Library", "URL": "nan"}}, {"type": "Feature", "geometry": {"type": "Point", "coordinates": [48.11208, -122.76774]}, "properties": {"Name": "Jefferson County Law Library", "Address": "1820 Jefferson Street", "County": "Jefferson", "City": "Jefferson County Law Library", "URL": "http://www.co.jefferson.wa.us"}}, {"type": "Feature", "geometry": {"type": "Point", "coordinates": [47.602719, -122.331727]}, "properties": {"Name": "King County Law Library", "Address": "W621 County Courthouse", "County": "King", "City": "King County Law Library", "URL": "http://kcll.org/"}}, {"type": "Feature", "geometry": {"type": "Point", "coordinates": [46.064544, -118.34363]}, "properties": {"Name": "Walla Walla County Law Library", "Address": "County Courthouse", "County": "Walla Walla", "City": "Walla Walla County Law Library", "URL": "nan"}}, {"type": "Feature", "geometry": {"type": "Point", "coordinates": [47.253252, -122.445795]}, "properties": {"Name": "Pierce County Law Library", "Address": "Rm I A-105 County-City Bldg", "County": "Pierce", "City": "Pierce County Law Library", "URL": "piercecountylawlibrary.org"}}, {"type": "Feature", "geometry": {"type": "Point", "coordinates": [46.32117, -117.97863]}, "properties": {"Name": "Columbia County Law Library", "Address": "341 E Main St., Suite 2", "County": "Columbia", "City": "Columbia County Law Library", "URL": "nan"}}, {"type": "Feature", "geometry": {"type": "Point", "coordinates": [47.29899, -122.58006]}, "properties": {"Name": "Pierce County Law Library", "Address": "4424 Point Fosdick Dr NW", "County": "Pierce", "City": "Pierce County Law Library", "URL": "piercecountylawlibrary.org"}}, {"type": "Feature", "geometry": {"type": "Point", "coordinates": [47.127386, -118.382719]}, "properties": {"Name": "Adams County Law Library", "Address": "Adams County Superior Court", "County": "Adams", "City": "Adams County Law Library", "URL": "nan"}}, {"type": "Feature", "geometry": {"type": "Point", "coordinates": [47.16061, -122.52065]}, "properties": {"Name": "Pierce County Law Library", "Address": "6300 Wildaire Rd SW", "County": "Pierce", "City": "Pierce County Law Library", "URL": "piercecountylawlibrary.org"}}, {"type": "Feature", "geometry": {"type": "Point", "coordinates": [47.61733, -122.34789]}, "properties": {"Name": "MRSC", "Address": "2601 4th Ave, Ste 800", "County": "King", "City": "MRSC", "URL": "http://www.mrsc.org"}}, {"type": "Feature", "geometry": {"type": "Point", "coordinates": [47.64934, -122.35591]}, "properties": {"Name": "King County Hazardous Waste Management Program Library", "Address": "130 Nickerson St, Ste 100", "County": "King", "City": "King County Hazardous Waste Management Program Library", "URL": "http://www.hazwastehelp.org/Library/index.aspx"}}, {"type": "Feature", "geometry": {"type": "Point", "coordinates": [47.58112, -122.32907]}, "properties": {"Name": "Seattle Municipal Archives", "Address": "PO Box 94728", "County": "King", "City": "Seattle Municipal Archives", "URL": "http://www.seattle.gov/cityarchives"}}, {"type": "Feature", "geometry": {"type": "Point", "coordinates": [47.59901, -122.33089]}, "properties": {"Name": "King County Department of Natural Resources & Parks", "Address": "201 S Jackson St., Suite 0190", "County": "King", "City": "King County Department of Natural Resources & Parks", "URL": "http://www.kingcounty.gov/environment/wlr/sections-programs/science-section/library.aspx"}}, {"type": "Feature", "geometry": {"type": "Point", "coordinates": [47.60448, -122.3379]}, "properties": {"Name": "Puget Sound Regional Council Information Center", "Address": "1011 Western Ave, Suite 500", "County": "King", "City": "Puget Sound Regional Council Information Center", "URL": "https://www.psrc.org"}}, {"type": "Feature", "geometry": {"type": "Point", "coordinates": [47.609041, -122.332021]}, "properties": {"Name": "US Environmental Protection Agency, Region 10 Library", "Address": "OMP-0102", "County": "King", "City": "US Environmental Protection Agency, Region 10 Library", "URL": "https://www.epa.gov/libraries/region-10-library-services"}}, {"type": "Feature", "geometry": {"type": "Point", "coordinates": [47.67393, -122.26691]}, "properties": {"Name": "National Archives at Seattle", "Address": "6125 Sand Point Way NE", "County": "King", "City": "National Archives at Seattle", "URL": "http://www.archives.gov/pacific-alaska/seattle"}}, {"type": "Feature", "geometry": {"type": "Point", "coordinates": [47.64453, -122.30677]}, "properties": {"Name": "Northwest and Alaska Fisheries Science Centers Library (NOAA)", "Address": "2725 Montlake Blvd E", "County": "King", "City": "Northwest and Alaska Fisheries Science Centers Library (NOAA)", "URL": "http://lib.nwfsc.noaa.gov/"}}, {"type": "Feature", "geometry": {"type": "Point", "coordinates": [47.686422, -122.255824]}, "properties": {"Name": "NOAA Seattle Library", "Address": "Bldg. 3, E/OC43", "County": "King", "City": "NOAA Seattle Library", "URL": "https://www.wrclib.noaa.gov"}}, {"type": "Feature", "geometry": {"type": "Point", "coordinates": [46.06791, -118.34275]}, "properties": {"Name": "US Army Corps of Engineers", "Address": "201 N 3rd Ave", "County": "Walla Walla", "City": "US Army Corps of Engineers", "URL": "http://www.nww.usace.army.mil"}}, {"type": "Feature", "geometry": {"type": "Point", "coordinates": [47.08948, -122.59995]}, "properties": {"Name": "Joint Base Lewis-McChord Libraries", "Address": "Bldg 2109, N 10th & Pendleton", "County": "Pierce", "City": "Joint Base Lewis-McChord Libraries", "URL": "http://www.jblmmwr.com/libraries.html"}}, {"type": "Feature", "geometry": {"type": "Point", "coordinates": [47.08948, -122.59995]}, "properties": {"Name": "Joint Base Lewis-McChord Libraries", "Address": "Bldg 2109, N 10th & Pendleton", "County": "Pierce", "City": "Joint Base Lewis-McChord Libraries", "URL": "https://jblm.armymwr.com/programs/grandstaff-library"}}, {"type": "Feature", "geometry": {"type": "Point", "coordinates": [47.08948, -122.59995]}, "properties": {"Name": "Joint Base Lewis-McChord Libraries", "Address": "Bldg 2109, N 10th & Pendleton", "County": "Pierce", "City": "Joint Base Lewis-McChord Libraries", "URL": "https://jblm.armymwr.com/programs/book-patch"}}, {"type": "Feature", "geometry": {"type": "Point", "coordinates": [47.12613, -122.51146]}, "properties": {"Name": "Joint Base Lewis-McChord Libraries", "Address": "Bldg 851, 851 Lincoln Blvd", "County": "Pierce", "City": "Joint Base Lewis-McChord Libraries", "URL": "https://jblm.armymwr.com/programs/mcchord-library"}}, {"type": "Feature", "geometry": {"type": "Point", "coordinates": [47.55736, -122.34129]}, "properties": {"Name": "US Army Corps of Engineers - Seattle District Library", "Address": "4735 E Marginal Way S", "County": "King", "City": "US Army Corps of Engineers - Seattle District Library", "URL": "http://www.nws.usace.army.mil/Library.aspx"}}, {"type": "Feature", "geometry": {"type": "Point", "coordinates": [47.63544, -117.64909]}, "properties": {"Name": "Fairchild Air Force Base Library FL4620", "Address": "2 W Castle St", "County": "Spokane", "City": "Fairchild Air Force Base Library FL4620", "URL": "http://www.fairchildfun.com/library"}}, {"type": "Feature", "geometry": {"type": "Point", "coordinates": [46.33259, -119.2671]}, "properties": {"Name": "US Department of Energy Public Reading Room", "Address": "2770 Crimson Way, CIC, Room 101L", "County": "Benton", "City": "US Department of Energy Public Reading Room", "URL": "https://reading-room.labworks.org"}}, {"type": "Feature", "geometry": {"type": "Point", "coordinates": [47.0369, -122.90047]}, "properties": {"Name": "Washington State Archives", "Address": "1129 Washington St SE", "County": "Thurston", "City": "Washington State Archives", "URL": "https://www.sos.wa.gov/archives/archives_state.aspx"}}, {"type": "Feature", "geometry": {"type": "Point", "coordinates": [46.35554, -119.2751]}, "properties": {"Name": "Ecology, Dept of", "Address": "3100 Port of Benton Blvd", "County": "Benton", "City": "Ecology, Dept of", "URL": "nan"}}, {"type": "Feature", "geometry": {"type": "Point", "coordinates": [47.007276, -120.544087]}, "properties": {"Name": "Washington State Archives", "Address": "Bledsoe-Washington Archives Bldg, CWU", "County": "kittitas", "City": "Washington State Archives", "URL": "https://www.sos.wa.gov/archives/archives_central.aspx"}}, {"type": "Feature", "geometry": {"type": "Point", "coordinates": [47.037386, -122.8973]}, "properties": {"Name": "Washington Geology Library", "Address": "Room 173", "County": "Thurston", "City": "Washington Geology Library", "URL": "http://www.dnr.wa.gov/programs-and-services/geology/washington-geology-library"}}, {"type": "Feature", "geometry": {"type": "Point", "coordinates": [47.26785, -122.45007]}, "properties": {"Name": "Washington State History Research Center", "Address": "315 N Stadium Way", "County": "Pierce", "City": "Washington State History Research Center", "URL": "http://www.washingtonhistory.org"}}, {"type": "Feature", "geometry": {"type": "Point", "coordinates": [47.581977, -122.150404]}, "properties": {"Name": "Washington State Archives", "Address": "Pritchard-Fleming Bldg", "County": "King", "City": "Washington State Archives", "URL": "https://www.sos.wa.gov/archives/archives_puget.aspx"}}, {"type": "Feature", "geometry": {"type": "Point", "coordinates": [47.843429, -122.003577]}, "properties": {"Name": "Washington State Library", "Address": "16774 170th Dr SE", "County": "Snohomish", "City": "Washington State Library", "URL": "nan"}}, {"type": "Feature", "geometry": {"type": "Point", "coordinates": [47.58289, -122.32416]}, "properties": {"Name": "Forensic Science Library Services", "Address": "2203 Airport Way S., Ste 250", "County": "King", "City": "Forensic Science Library Services", "URL": "http://www.wsp.wa.gov/forensics/flsbhome.htm"}}, {"type": "Feature", "geometry": {"type": "Point", "coordinates": [47.49137, -117.58642]}, "properties": {"Name": "Washington State Archives", "Address": "960 Washington St", "County": "Spokane", "City": "Washington State Archives", "URL": "https://www.sos.wa.gov/archives/archives_eastern.aspx"}}, {"type": "Feature", "geometry": {"type": "Point", "coordinates": [47.0369, -122.90047]}, "properties": {"Name": "Washington State Archives", "Address": "1129 Washington St SE", "County": "Thurston", "City": "Washington State Archives", "URL": "http://www.sos.wa.gov/archives/archives/southwest.aspx"}}, {"type": "Feature", "geometry": {"type": "Point", "coordinates": [48.24071, -124.29217]}, "properties": {"Name": "Washington State Library", "Address": "1830 Eagle Crest Way", "County": "Clallam", "City": "Washington State Library", "URL": "nan"}}, {"type": "Feature", "geometry": {"type": "Point", "coordinates": [46.92592, -123.91954]}, "properties": {"Name": "Washington State Library", "Address": "191 Constantine Way", "County": "Grays harbor", "City": "Washington State Library", "URL": "nan"}}, {"type": "Feature", "geometry": {"type": "Point", "coordinates": [47.24111, -123.18963]}, "properties": {"Name": "Washington State Library", "Address": "2321 West Dayton Airport Road", "County": "Mason", "City": "Washington State Library", "URL": "nan"}}, {"type": "Feature", "geometry": {"type": "Point", "coordinates": [47.61689, -122.33685]}, "properties": {"Name": "Washington State Library", "Address": "2021 9th Avenue", "County": "King", "City": "Washington State Library", "URL": "https://www.wtbbl.org"}}, {"type": "Feature", "geometry": {"type": "Point", "coordinates": [47.17727, -122.56448]}, "properties": {"Name": "Washington State Library", "Address": "9601 Steilacoom Blvd SW", "County": "Pierce", "City": "Washington State Library", "URL": "nan"}}, {"type": "Feature", "geometry": {"type": "Point", "coordinates": [47.57333, -117.6773]}, "properties": {"Name": "Washington State Library", "Address": "PO Box 800", "County": "Spokane", "City": "Washington State Library", "URL": "nan"}}, {"type": "Feature", "geometry": {"type": "Point", "coordinates": [47.845, -121.99695]}, "properties": {"Name": "Washington State Library", "Address": "16700 177th Ave SE", "County": "Snohomish", "City": "Washington State Library", "URL": "nan"}}, {"type": "Feature", "geometry": {"type": "Point", "coordinates": [46.07974, -118.35907]}, "properties": {"Name": "Washington State Library", "Address": "1313 N 13th Ave", "County": "Walla Walla", "City": "Washington State Library", "URL": "nan"}}, {"type": "Feature", "geometry": {"type": "Point", "coordinates": [46.67906, -118.85062]}, "properties": {"Name": "Washington State Library", "Address": "1301 N Ephrata", "County": "Franklin", "City": "Washington State Library", "URL": "nan"}}, {"type": "Feature", "geometry": {"type": "Point", "coordinates": [47.34782, -122.61498]}, "properties": {"Name": "Washington State Library", "Address": "9601 Bujacich Rd NW", "County": "Pierce", "City": "Washington State Library", "URL": "nan"}}, {"type": "Feature", "geometry": {"type": "Point", "coordinates": [47.65246, -117.58159]}, "properties": {"Name": "Washington State Library", "Address": "11919 W Sprague", "County": "Spokane", "City": "Washington State Library", "URL": "nan"}}, {"type": "Feature", "geometry": {"type": "Point", "coordinates": [47.04759, -122.80831]}, "properties": {"Name": "Ecology, Dept of", "Address": "300 Desmond Drive SE, Lacey", "County": "Thurston", "City": "Ecology, Dept of", "URL": "nan"}}, {"type": "Feature", "geometry": {"type": "Point", "coordinates": [48.726095, -122.485708]}, "properties": {"Name": "Washington State Archives", "Address": "Western Washington University", "County": "Whatcom", "City": "Washington State Archives", "URL": "http://www.sos.wa.gov/archives/archives_northwest"}}, {"type": "Feature", "geometry": {"type": "Point", "coordinates": [47.00062, -122.91551]}, "properties": {"Name": "Materials Laboratory Branch, WSDOT", "Address": "1655 S 2nd Ave SW", "County": "Thurston", "City": "Materials Laboratory Branch, WSDOT", "URL": "http://www.wsdot.wa.gov/library"}}, {"type": "Feature", "geometry": {"type": "Point", "coordinates": [45.63124, -122.64811]}, "properties": {"Name": "Washington State School for the Blind Library", "Address": "2214 E 13th St", "County": "Clark", "City": "Washington State School for the Blind Library", "URL": "http://www.wssb.wa.gov"}}, {"type": "Feature", "geometry": {"type": "Point", "coordinates": [45.62449, -122.63907]}, "properties": {"Name": "Washington School for the Deaf", "Address": "611 Grand Blvd", "County": "Clark", "City": "Washington School for the Deaf", "URL": "http://www.wsd.wa.gov"}}, {"type": "Feature", "geometry": {"type": "Point", "coordinates": [46.98617, -122.90691]}, "properties": {"Name": "Washington State Library", "Address": "6880 Capitol Blvd SE", "County": "Thurston", "City": "Washington State Library", "URL": "http://www.sos.wa.gov/library/"}}, {"type": "Feature", "geometry": {"type": "Point", "coordinates": [46.982837, -122.922242]}, "properties": {"Name": "Safety & Health Video Library & Resource Center", "Address": "Division of Occupational Safety & Health \u2013 Educati", "County": "Thurston", "City": "Safety & Health Video Library & Resource Center", "URL": "http://www.videos.lni.wa.gov"}}, {"type": "Feature", "geometry": {"type": "Point", "coordinates": [47.64641, -122.69631]}, "properties": {"Name": "Kitsap Regional Library", "Address": "3450 NW Carlton Street", "County": "Kitsap", "City": "Kitsap Regional Library", "URL": "http://www.krl.org"}}, {"type": "Feature", "geometry": {"type": "Point", "coordinates": [47.13222, -122.43662]}, "properties": {"Name": "Pierce County Library System", "Address": "13718 Pacific Avenue S", "County": "Pierce", "City": "Pierce County Library System", "URL": "http://www.piercecountylibrary.org/branches/branch-listing.htm"}}, {"type": "Feature", "geometry": {"type": "Point", "coordinates": [47.59509, -122.62493]}, "properties": {"Name": "Kitsap Regional Library", "Address": "1301 Sylvan Way", "County": "Kitsap", "City": "Kitsap Regional Library", "URL": "http://www.krl.org"}}, {"type": "Feature", "geometry": {"type": "Point", "coordinates": [47.22572, -122.53585]}, "properties": {"Name": "Pierce County Library System", "Address": "3609 Market Place W., Suite 100", "County": "Pierce", "City": "Pierce County Library System", "URL": "http://www.piercecountylibrary.org/branches/branch-listing.htm"}}, {"type": "Feature", "geometry": {"type": "Point", "coordinates": [47.63501, -122.52053]}, "properties": {"Name": "Kitsap Regional Library", "Address": "1270 Madison Avenue N", "County": "Kitsap", "City": "Kitsap Regional Library", "URL": "http://www.krl.org/libraries"}}, {"type": "Feature", "geometry": {"type": "Point", "coordinates": [47.56677, -122.62838]}, "properties": {"Name": "Kitsap Regional Library", "Address": "612 Fifth Street", "County": "Kitsap", "City": "Kitsap Regional Library", "URL": "http://www.krl.org/libraries"}}, {"type": "Feature", "geometry": {"type": "Point", "coordinates": [47.79955, -122.50208]}, "properties": {"Name": "Kitsap Regional Library", "Address": "26159 Dulay Road NE", "County": "Kitsap", "City": "Kitsap Regional Library", "URL": "http://www.krl.org"}}, {"type": "Feature", "geometry": {"type": "Point", "coordinates": [47.555844, -122.545501]}, "properties": {"Name": "Kitsap Regional Library", "Address": "8067 E. Main Street", "County": "Kitsap", "City": "Kitsap Regional Library", "URL": "http://www.krl.org"}}, {"type": "Feature", "geometry": {"type": "Point", "coordinates": [47.54244, -122.63575]}, "properties": {"Name": "Kitsap Regional Library", "Address": "87 Sidney Avenue", "County": "Kitsap", "City": "Kitsap Regional Library", "URL": "http://www.krl.org"}}, {"type": "Feature", "geometry": {"type": "Point", "coordinates": [47.73594, -122.64026]}, "properties": {"Name": "Kitsap Regional Library", "Address": "700 NE Lincoln Road", "County": "Kitsap", "City": "Kitsap Regional Library", "URL": "http://www.krl.org"}}, {"type": "Feature", "geometry": {"type": "Point", "coordinates": [47.29899, -122.58006]}, "properties": {"Name": "Pierce County Library System", "Address": "4424 Point Fosdick Drive", "County": "Pierce", "City": "Pierce County Library System", "URL": "http://www.piercecountylibrary.org/branches/branch-listing.htm"}}, {"type": "Feature", "geometry": {"type": "Point", "coordinates": [47.33842, -122.74646]}, "properties": {"Name": "Pierce County Library System", "Address": "8905 Key Peninsula Hwy NW", "County": "Pierce", "City": "Pierce County Library System", "URL": "http://www.piercecountylibrary.org/branches/branch-listing.htm"}}, {"type": "Feature", "geometry": {"type": "Point", "coordinates": [47.15494, -122.36044]}, "properties": {"Name": "Pierce County Library System", "Address": "5107 112th Street E", "County": "Pierce", "City": "Pierce County Library System", "URL": "http://www.piercecountylibrary.org/"}}, {"type": "Feature", "geometry": {"type": "Point", "coordinates": [47.09155, -122.64426]}, "properties": {"Name": "Pierce County Library System", "Address": "1540 Wilmington Drive", "County": "Pierce", "City": "Pierce County Library System", "URL": "http://www.piercecountylibrary.org/branches/branch-listing.htm"}}, {"type": "Feature", "geometry": {"type": "Point", "coordinates": [47.20466, -122.2448]}, "properties": {"Name": "Pierce County Library System", "Address": "1116 Fryar Avenue", "County": "Pierce", "City": "Pierce County Library System", "URL": "http://www.piercecountylibrary.org/branches/branch-listing.htm"}}, {"type": "Feature", "geometry": {"type": "Point", "coordinates": [47.12383, -122.5545]}, "properties": {"Name": "Pierce County Library System", "Address": "14916 Washington Avenue SW", "County": "Pierce", "City": "Pierce County Library System", "URL": "http://www.piercecountylibrary.org/branches/branch-listing.htm"}}, {"type": "Feature", "geometry": {"type": "Point", "coordinates": [47.17365, -122.690676]}, "properties": {"Name": "Pierce County Library System", "Address": "Anderson Island Community Clubhouse", "County": "Pierce", "City": "Pierce County Library System", "URL": "http://www.piercecountylibrary.org/branches/branch-listing.htm"}}, {"type": "Feature", "geometry": {"type": "Point", "coordinates": [47.23867, -122.34065]}, "properties": {"Name": "Pierce County Library System", "Address": "6622 20th Street E", "County": "Pierce", "City": "Pierce County Library System", "URL": "http://www.piercecountylibrary.org/branches/north-east-county/fife/fife-library.htm"}}, {"type": "Feature", "geometry": {"type": "Point", "coordinates": [47.11638, -122.29334]}, "properties": {"Name": "Pierce County Library System", "Address": "15420 Meridian E", "County": "Pierce", "City": "Pierce County Library System", "URL": "http://www.piercecountylibrary.org/branches/branch-listing.htm"}}, {"type": "Feature", "geometry": {"type": "Point", "coordinates": [47.24728, -122.29461]}, "properties": {"Name": "Pierce County Library System", "Address": "900 Meridian E., Suite 29", "County": "Pierce", "City": "Pierce County Library System", "URL": "http://www.piercecountylibrary.org/branches/branch-listing.htm"}}, {"type": "Feature", "geometry": {"type": "Point", "coordinates": [47.17655, -122.57913]}, "properties": {"Name": "Pierce County Library System", "Address": "2950 Steilacoom Blvd.", "County": "Pierce", "City": "Pierce County Library System", "URL": "http://www.piercecountylibrary.org/branches/branch-listing.htm"}}, {"type": "Feature", "geometry": {"type": "Point", "coordinates": [47.66981, -122.38444]}, "properties": {"Name": "Seattle Public Library - Central Library", "Address": "5614 22nd Ave. N.W.", "County": "King", "City": "Seattle Public Library - Central Library", "URL": "https://www.spl.org/hours-and-locations/ballard-branch"}}, {"type": "Feature", "geometry": {"type": "Point", "coordinates": [47.15598, -122.3881]}, "properties": {"Name": "Pierce County Library System", "Address": "3005 112th St E", "County": "Pierce", "City": "Pierce County Library System", "URL": "https://www.piercecountylibrary.org/branches/central-south-county/pac-processing-administrative/proc"}}, {"type": "Feature", "geometry": {"type": "Point", "coordinates": [47.49984, -122.18128]}, "properties": {"Name": "King County Library System", "Address": "2801 NE 10th St", "County": "King", "City": "King County Library System", "URL": "http://www.kcls.org/rentonhighlands/"}}, {"type": "Feature", "geometry": {"type": "Point", "coordinates": [48.06274, -122.18587]}, "properties": {"Name": "Sno-Isle Libraries", "Address": "7312 35th Ave NE", "County": "Snohomish", "City": "Sno-Isle Libraries", "URL": "http://www.sno-isle.org"}}, {"type": "Feature", "geometry": {"type": "Point", "coordinates": [47.57049, -122.14899]}, "properties": {"Name": "King County Library System", "Address": "14250 SE Newport Way", "County": "King", "City": "King County Library System", "URL": "http://www.kcls.org/newportway/"}}, {"type": "Feature", "geometry": {"type": "Point", "coordinates": [47.49667, -121.78335]}, "properties": {"Name": "King County Library System", "Address": "115 E 4th St", "County": "King", "City": "King County Library System", "URL": "http://www.kcls.org/northbend/"}}, {"type": "Feature", "geometry": {"type": "Point", "coordinates": [47.67891, -122.12807]}, "properties": {"Name": "King County Library System", "Address": "15990 NE 85th St", "County": "King", "City": "King County Library System", "URL": "https://kcls.org/locations/1533/"}}, {"type": "Feature", "geometry": {"type": "Point", "coordinates": [47.77188, -122.38501]}, "properties": {"Name": "King County Library System", "Address": "19601 21st Ave NW", "County": "King", "City": "King County Library System", "URL": "http://www.kcls.org/richmondbeach/"}}, {"type": "Feature", "geometry": {"type": "Point", "coordinates": [47.60059, -122.03692]}, "properties": {"Name": "King County Library System", "Address": "825 228th Ave SE", "County": "King", "City": "King County Library System", "URL": "http://www.kcls.org/sammamish/"}}, {"type": "Feature", "geometry": {"type": "Point", "coordinates": [47.75552, -122.3247]}, "properties": {"Name": "King County Library System", "Address": "345 NE 175th St", "County": "King", "City": "King County Library System", "URL": "http://www.kcls.org/shoreline/"}}, {"type": "Feature", "geometry": {"type": "Point", "coordinates": [47.70845, -121.36104]}, "properties": {"Name": "King County Library System", "Address": "100 5th St", "County": "King", "City": "King County Library System", "URL": "https://kcls.org/locations/1536/"}}, {"type": "Feature", "geometry": {"type": "Point", "coordinates": [47.49061, -122.23859]}, "properties": {"Name": "King County Library System", "Address": "12601 76th Ave S", "County": "King", "City": "King County Library System", "URL": "http://www.kcls.org/skyway/"}}, {"type": "Feature", "geometry": {"type": "Point", "coordinates": [47.52988, -121.87224]}, "properties": {"Name": "King County Library System", "Address": "7824 Center Blvd SE", "County": "King", "City": "King County Library System", "URL": "http://www.kcls.org/snoqualmie/"}}, {"type": "Feature", "geometry": {"type": "Point", "coordinates": [47.4432, -122.27372]}, "properties": {"Name": "King County Library System", "Address": "17850 Military Road South", "County": "King", "City": "King County Library System", "URL": "http://www.kcls.org/valleyview/"}}, {"type": "Feature", "geometry": {"type": "Point", "coordinates": [47.45081, -122.45951]}, "properties": {"Name": "King County Library System", "Address": "17210 Vashon Hwy SW", "County": "King", "City": "King County Library System", "URL": "https://kcls.org/locations/1545/"}}, {"type": "Feature", "geometry": {"type": "Point", "coordinates": [47.50689, -122.35292]}, "properties": {"Name": "King County Library System", "Address": "1409 SW 107th Street", "County": "King", "City": "King County Library System", "URL": "http://www.kcls.org/whitecenter/"}}, {"type": "Feature", "geometry": {"type": "Point", "coordinates": [48.53656, -123.03032]}, "properties": {"Name": "San Juan Island Library", "Address": "1010 Guard Street", "County": "San Juan", "City": "San Juan Island Library", "URL": "https://www.sjlib.org"}}, {"type": "Feature", "geometry": {"type": "Point", "coordinates": [47.53766, -122.16737]}, "properties": {"Name": "King County Library System", "Address": "12901 Newcastle Way", "County": "King", "City": "King County Library System", "URL": "https://kcls.org/locations/1564/?_ga=2.19233336.1478965472.1542308891-91953639.1540833007"}}, {"type": "Feature", "geometry": {"type": "Point", "coordinates": [46.974869, -118.617497]}, "properties": {"Name": "East Adams Library District", "Address": "(LRMS Library)", "County": "Adams", "City": "East Adams Library District", "URL": "http://www.eastadamslibrary.org"}}, {"type": "Feature", "geometry": {"type": "Point", "coordinates": [47.12623, -118.38199]}, "properties": {"Name": "East Adams Library District", "Address": "302 W Main Ave", "County": "Adams", "City": "East Adams Library District", "URL": "http://www.eastadamslibrary.org"}}, {"type": "Feature", "geometry": {"type": "Point", "coordinates": [46.752429, -118.310492]}, "properties": {"Name": "East Adams Library District", "Address": "Washtucna School Library", "County": "Adams", "City": "East Adams Library District", "URL": "http://www.eastadamslibrary.org"}}, {"type": "Feature", "geometry": {"type": "Point", "coordinates": [47.09705, -122.20255]}, "properties": {"Name": "Pierce County Library System", "Address": "202 Washington Avenue S", "County": "Pierce", "City": "Pierce County Library System", "URL": "http://www.piercecountylibrary.org/branches/central-south-county/orting/orting-library.htm"}}, {"type": "Feature", "geometry": {"type": "Point", "coordinates": [47.41836, -122.19672]}, "properties": {"Name": "King County Library System", "Address": "20500 108th Ave SE", "County": "King", "City": "King County Library System", "URL": "https://kcls.org/locations/155/"}}, {"type": "Feature", "geometry": {"type": "Point", "coordinates": [47.75148, -122.08192]}, "properties": {"Name": "King County Library System", "Address": "17105 Avondale Rd NE", "County": "King", "City": "King County Library System", "URL": "https://kcls.org/locations/1548/"}}, {"type": "Feature", "geometry": {"type": "Point", "coordinates": [47.57804, -122.3114]}, "properties": {"Name": "Seattle Public Library - Central Library", "Address": "2821 Beacon Ave. S.", "County": "King", "City": "Seattle Public Library - Central Library", "URL": "https://www.spl.org/hours-and-locations/beacon-hill-branch"}}, {"type": "Feature", "geometry": {"type": "Point", "coordinates": [47.48187, -122.20198]}, "properties": {"Name": "King County Library System", "Address": "100 Mill Ave S", "County": "King", "City": "King County Library System", "URL": "http://www.kcls.org/renton/"}}, {"type": "Feature", "geometry": {"type": "Point", "coordinates": [47.51603, -122.34506]}, "properties": {"Name": "King County Library System", "Address": "9720 8th Ave SW", "County": "King", "City": "King County Library System", "URL": "http://www.kcls.org/greenbridge/"}}, {"type": "Feature", "geometry": {"type": "Point", "coordinates": [47.45933, -122.2562]}, "properties": {"Name": "King County Library System", "Address": "1386 Southcenter Mall", "County": "King", "City": "King County Library System", "URL": "http://www.kcls.org/southcenter/"}}, {"type": "Feature", "geometry": {"type": "Point", "coordinates": [47.62164, -122.13139]}, "properties": {"Name": "King County Library System", "Address": "15600 NE 8th St, Ste K-11", "County": "King", "City": "King County Library System", "URL": "https://kcls.org/locations/1499/"}}, {"type": "Feature", "geometry": {"type": "Point", "coordinates": [47.36116, -122.30823]}, "properties": {"Name": "King County Library System", "Address": "26809 Pacific Hwy S", "County": "King", "City": "King County Library System", "URL": "http://www.kcls.org/woodmont/"}}, {"type": "Feature", "geometry": {"type": "Point", "coordinates": [47.29874, -122.21817]}, "properties": {"Name": "King County Library System", "Address": "1102 Auburn Way S", "County": "King", "City": "King County Library System", "URL": "http://www.kcls.org/auburn/"}}, {"type": "Feature", "geometry": {"type": "Point", "coordinates": [47.12623, -118.38199]}, "properties": {"Name": "East Adams Library District", "Address": "302 W. Main Ave.", "County": "Adams", "City": "East Adams Library District", "URL": "http://www.eastadamslibrary.org"}}, {"type": "Feature", "geometry": {"type": "Point", "coordinates": [47.15598, -122.3881]}, "properties": {"Name": "Pierce County Library System", "Address": "3005 112th St E", "County": "Pierce", "City": "Pierce County Library System", "URL": "http://www.piercecountylibrary.org"}}, {"type": "Feature", "geometry": {"type": "Point", "coordinates": [48.64678, -118.73779]}, "properties": {"Name": "North Central Washington Libraries", "Address": "794 S Clark Avenue", "County": "Ferry", "City": "North Central Washington Libraries", "URL": "http://www.ncrl.org/republic"}}, {"type": "Feature", "geometry": {"type": "Point", "coordinates": [47.42339, -120.31468]}, "properties": {"Name": "North Central Washington Libraries", "Address": "310 Douglas Street", "County": "Chelan", "City": "North Central Washington Libraries", "URL": "http://www.ncrl.org/wenatchee"}}, {"type": "Feature", "geometry": {"type": "Point", "coordinates": [48.364496, -119.581473]}, "properties": {"Name": "North Central Washington Libraries", "Address": "228 Pine St.", "County": "Okanogan", "City": "North Central Washington Libraries", "URL": "http://www.ncrl.org/okanogan"}}, {"type": "Feature", "geometry": {"type": "Point", "coordinates": [48.40973, -119.53027]}, "properties": {"Name": "North Central Washington Libraries", "Address": "30 South Ash", "County": "Okanogan", "City": "North Central Washington Libraries", "URL": "http://www.ncrl.org/omak"}}, {"type": "Feature", "geometry": {"type": "Point", "coordinates": [48.93727, -119.43685]}, "properties": {"Name": "North Central Washington Libraries", "Address": "1276 Main Street", "County": "Okanogan", "City": "North Central Washington Libraries", "URL": "http://www.ncrl.org/oroville"}}, {"type": "Feature", "geometry": {"type": "Point", "coordinates": [48.0529, -119.90091]}, "properties": {"Name": "North Central Washington Libraries", "Address": "174 Pateros Mall", "County": "Okanogan", "City": "North Central Washington Libraries", "URL": "http://www.ncrl.org/pateros"}}, {"type": "Feature", "geometry": {"type": "Point", "coordinates": [47.88603, -120.1622]}, "properties": {"Name": "North Central Washington Libraries", "Address": "80 Wapato Way", "County": "Chelan", "City": "North Central Washington Libraries", "URL": "http://www.ncrl.org/manson"}}, {"type": "Feature", "geometry": {"type": "Point", "coordinates": [47.23719, -119.85322]}, "properties": {"Name": "North Central Washington Libraries", "Address": "208 Central Avenue S", "County": "Grant", "City": "North Central Washington Libraries", "URL": "http://www.ncrl.org/quincy"}}, {"type": "Feature", "geometry": {"type": "Point", "coordinates": [47.93863, -119.00285]}, "properties": {"Name": "North Central Washington Libraries", "Address": "225 Federal St.", "County": "Grant", "City": "North Central Washington Libraries", "URL": "http://www.ncrl.org/grandcoulee"}}, {"type": "Feature", "geometry": {"type": "Point", "coordinates": [46.90076, -119.6301]}, "properties": {"Name": "North Central Washington Libraries", "Address": "136 Camelia St NW", "County": "Grant", "City": "North Central Washington Libraries", "URL": "http://www.ncrl.org/royalcity"}}, {"type": "Feature", "geometry": {"type": "Point", "coordinates": [47.38973, -119.48911]}, "properties": {"Name": "North Central Washington Libraries", "Address": "32 E Main Street", "County": "Grant", "City": "North Central Washington Libraries", "URL": "http://www.ncrl.org/soaplake"}}, {"type": "Feature", "geometry": {"type": "Point", "coordinates": [48.70961, -119.43563]}, "properties": {"Name": "North Central Washington Libraries", "Address": "209 S Whitcomb Avenue", "County": "Okanogan", "City": "North Central Washington Libraries", "URL": "http://www.ncrl.org/tonasket"}}, {"type": "Feature", "geometry": {"type": "Point", "coordinates": [48.366263, -120.122825]}, "properties": {"Name": "North Central Washington Libraries", "Address": "201 N Methow Valley Hwy, Room 1", "County": "Okanogan", "City": "North Central Washington Libraries", "URL": "http://www.ncrl.org/twisp"}}, {"type": "Feature", "geometry": {"type": "Point", "coordinates": [46.96749, -119.041]}, "properties": {"Name": "North Central Washington Libraries", "Address": "305 S Main Street", "County": "Grant", "City": "North Central Washington Libraries", "URL": "http://www.ncrl.org/warden"}}, {"type": "Feature", "geometry": {"type": "Point", "coordinates": [47.16238, -122.03006]}, "properties": {"Name": "Pierce County Library System", "Address": "123 S. River Avenue", "County": "Pierce", "City": "Pierce County Library System", "URL": "http://www.piercecountylibrary.org/branches/branch-listing.htm"}}, {"type": "Feature", "geometry": {"type": "Point", "coordinates": [47.56949, -120.6042]}, "properties": {"Name": "North Central Washington Libraries", "Address": "8396 Main St", "County": "Chelan", "City": "North Central Washington Libraries", "URL": "http://www.ncrl.org/peshastin"}}, {"type": "Feature", "geometry": {"type": "Point", "coordinates": [47.5229, -120.46743]}, "properties": {"Name": "North Central Washington Libraries", "Address": "300 Woodring Street", "County": "Chelan", "City": "North Central Washington Libraries", "URL": "http://www.ncrl.org/cashmere"}}, {"type": "Feature", "geometry": {"type": "Point", "coordinates": [48.19337, -122.1184]}, "properties": {"Name": "Sno-Isle Libraries", "Address": "135 N Washington Ave", "County": "Snohomish", "City": "Sno-Isle Libraries", "URL": "http://www.sno-isle.org/locations/arlington/"}}, {"type": "Feature", "geometry": {"type": "Point", "coordinates": [46.27504, -119.18925]}, "properties": {"Name": "Mid-Columbia Libraries", "Address": "7525 Wrigley Dr.", "County": "Franklin", "City": "Mid-Columbia Libraries", "URL": "http://www.midcolumbialibraries.org/branch/west-pasco"}}, {"type": "Feature", "geometry": {"type": "Point", "coordinates": [46.20408, -119.12251]}, "properties": {"Name": "Mid-Columbia Libraries", "Address": "405 S Dayton St", "County": "Benton", "City": "Mid-Columbia Libraries", "URL": "http://www.midcolumbialibraries.org"}}, {"type": "Feature", "geometry": {"type": "Point", "coordinates": [46.29645, -119.33817]}, "properties": {"Name": "Mid-Columbia Libraries", "Address": "3803 W Van Giesen St", "County": "Benton", "City": "Mid-Columbia Libraries", "URL": "http://www.midcolumbialibraries.org"}}, {"type": "Feature", "geometry": {"type": "Point", "coordinates": [47.42551, -120.31101]}, "properties": {"Name": "North Central Washington Libraries", "Address": "16 N Columbia St", "County": "Chelan", "City": "North Central Washington Libraries", "URL": "http://www.ncrl.org/"}}, {"type": "Feature", "geometry": {"type": "Point", "coordinates": [47.12797, -119.27754]}, "properties": {"Name": "North Central Washington Libraries", "Address": "418 E 5th Avenue", "County": "Grant", "City": "North Central Washington Libraries", "URL": "http://www.ncrl.org/moseslake"}}, {"type": "Feature", "geometry": {"type": "Point", "coordinates": [48.00934, -119.67404]}, "properties": {"Name": "North Central Washington Libraries", "Address": "1206 Columbia Avenue", "County": "Douglas", "City": "North Central Washington Libraries", "URL": "http://www.ncrl.org/bridgeport"}}, {"type": "Feature", "geometry": {"type": "Point", "coordinates": [48.477686, -120.190808]}, "properties": {"Name": "North Central Washington Libraries", "Address": "49 State Route 20", "County": "Okanogan", "City": "North Central Washington Libraries", "URL": "http://www.ncrl.org/winthrop"}}, {"type": "Feature", "geometry": {"type": "Point", "coordinates": [47.84143, -120.01636]}, "properties": {"Name": "North Central Washington Libraries", "Address": "216 N Emerson St.", "County": "Chelan", "City": "North Central Washington Libraries", "URL": "http://www.ncrl.org/chelan"}}, {"type": "Feature", "geometry": {"type": "Point", "coordinates": [47.61065, -119.29376]}, "properties": {"Name": "North Central Washington Libraries", "Address": "405 W Main St", "County": "Grant", "City": "North Central Washington Libraries", "URL": "http://www.ncrl.org/couleecity"}}, {"type": "Feature", "geometry": {"type": "Point", "coordinates": [47.41735, -120.28959]}, "properties": {"Name": "North Central Washington Libraries", "Address": "271 9th St NE", "County": "Chelan", "City": "North Central Washington Libraries", "URL": "http://www.ncrl.org/eastwenatchee"}}, {"type": "Feature", "geometry": {"type": "Point", "coordinates": [47.67695, -120.20954]}, "properties": {"Name": "North Central Washington Libraries", "Address": "14138 Kinzel St", "County": "Chelan", "City": "North Central Washington Libraries", "URL": "http://www.ncrl.org/entiat"}}, {"type": "Feature", "geometry": {"type": "Point", "coordinates": [47.32072, -119.55007]}, "properties": {"Name": "North Central Washington Libraries", "Address": "45 Alder St NW", "County": "Grant", "City": "North Central Washington Libraries", "URL": "http://www.ncrl.org/ephrata"}}, {"type": "Feature", "geometry": {"type": "Point", "coordinates": [47.59511, -120.66419]}, "properties": {"Name": "North Central Washington Libraries", "Address": "700 Hwy 2", "County": "Chelan", "City": "North Central Washington Libraries", "URL": "http://www.ncrl.org/leavenworth"}}, {"type": "Feature", "geometry": {"type": "Point", "coordinates": [48.09905, -119.77915]}, "properties": {"Name": "North Central Washington Libraries", "Address": "108 S 3rd Street", "County": "Okanogan", "City": "North Central Washington Libraries", "URL": "http://www.ncrl.org/brewster"}}, {"type": "Feature", "geometry": {"type": "Point", "coordinates": [48.7403, -117.41898]}, "properties": {"Name": "Pend Oreille County Library District", "Address": "210 Blackwell, Suite 1", "County": "Pend Oreille", "City": "Pend Oreille County Library District", "URL": "http://www.pocld.org"}}, {"type": "Feature", "geometry": {"type": "Point", "coordinates": [47.64765, -120.071]}, "properties": {"Name": "North Central Washington Libraries", "Address": "105 N Chelan Street", "County": "Douglas", "City": "North Central Washington Libraries", "URL": "http://www.ncrl.org/waterville"}}, {"type": "Feature", "geometry": {"type": "Point", "coordinates": [46.193858, -119.180363]}, "properties": {"Name": "Mid-Columbia Libraries", "Address": "Neva LeBlond Bequette Service Center", "County": "Benton", "City": "Mid-Columbia Libraries", "URL": "http://www.midcolumbialibraries.org"}}, {"type": "Feature", "geometry": {"type": "Point", "coordinates": [48.5217, -122.90922]}, "properties": {"Name": "Lopez Island Library District", "Address": "2225 Fisherman Bay Rd", "County": "San Juan", "City": "Lopez Island Library District", "URL": "http://www.lopezlibrary.org"}}, {"type": "Feature", "geometry": {"type": "Point", "coordinates": [48.39196, -122.48938]}, "properties": {"Name": "La Conner Regional Library", "Address": "614 E. Morris Street", "County": "Skagit", "City": "La Conner Regional Library", "URL": "PO Box 370"}}, {"type": "Feature", "geometry": {"type": "Point", "coordinates": [48.69672, -122.90437]}, "properties": {"Name": "Orcas Island Library", "Address": "500 Rose Street", "County": "San Juan", "City": "Orcas Island Library", "URL": "http://www.orcaslibrary.org"}}, {"type": "Feature", "geometry": {"type": "Point", "coordinates": [46.26796, -119.48486]}, "properties": {"Name": "Mid-Columbia Libraries", "Address": "810 Horne Dr.", "County": "Benton", "City": "Mid-Columbia Libraries", "URL": "http://www.midcolumbialibraries.org"}}, {"type": "Feature", "geometry": {"type": "Point", "coordinates": [48.336892, -117.294366]}, "properties": {"Name": "Pend Oreille County Library District", "Address": "107 1st Ave", "County": "Pend Oreille", "City": "Pend Oreille County Library District", "URL": "http://www.pocld.org"}}, {"type": "Feature", "geometry": {"type": "Point", "coordinates": [48.08581, -123.10154]}, "properties": {"Name": "North Olympic Library System", "Address": "630 N Sequim Ave", "County": "Clallam", "City": "North Olympic Library System", "URL": "https://www.nols.org/sequim-branch-library/"}}, {"type": "Feature", "geometry": {"type": "Point", "coordinates": [48.86096, -117.37487]}, "properties": {"Name": "Pend Oreille County Library District", "Address": "302 Park Street", "County": "Pend Oreille", "City": "Pend Oreille County Library District", "URL": "http://www.pocld.org"}}, {"type": "Feature", "geometry": {"type": "Point", "coordinates": [48.18064, -117.0437]}, "properties": {"Name": "Pend Oreille County Library District", "Address": "116 S Washington Ave", "County": "Pend Oreille", "City": "Pend Oreille County Library District", "URL": "http://www.pocld.org"}}, {"type": "Feature", "geometry": {"type": "Point", "coordinates": [47.59509, -122.62493]}, "properties": {"Name": "Kitsap Regional Library", "Address": "1301 Sylvan Way", "County": "Kitsap", "City": "Kitsap Regional Library", "URL": "http://www.krl.org"}}, {"type": "Feature", "geometry": {"type": "Point", "coordinates": [47.17561, -122.18335]}, "properties": {"Name": "Pierce County Library System", "Address": "18501 90th Street E", "County": "Pierce", "City": "Pierce County Library System", "URL": "http://www.piercecountylibrary.org/branches/branch-listing.htm"}}, {"type": "Feature", "geometry": {"type": "Point", "coordinates": [46.86711, -122.26904]}, "properties": {"Name": "Pierce County Library System", "Address": "205 Center Street W", "County": "Pierce", "City": "Pierce County Library System", "URL": "http://www.piercecountylibrary.org/branches/branch-listing.htm"}}, {"type": "Feature", "geometry": {"type": "Point", "coordinates": [47.0526, -122.30787]}, "properties": {"Name": "Pierce County Library System", "Address": "9202 224th Street E", "County": "Pierce", "City": "Pierce County Library System", "URL": "http://www.piercecountylibrary.org/branches/branch-listing.htm"}}, {"type": "Feature", "geometry": {"type": "Point", "coordinates": [48.18064, -117.0437]}, "properties": {"Name": "Pend Oreille County Library District", "Address": "116 S Washington Ave", "County": "Pend Oreille", "City": "Pend Oreille County Library District", "URL": "http://www.pocld.org"}}, {"type": "Feature", "geometry": {"type": "Point", "coordinates": [46.19419, -119.18199]}, "properties": {"Name": "Mid-Columbia Libraries", "Address": "1620 S Union St.", "County": "Benton", "City": "Mid-Columbia Libraries", "URL": "http://www.midcolumbialibraries.org"}}, {"type": "Feature", "geometry": {"type": "Point", "coordinates": [46.737959, -119.909018]}, "properties": {"Name": "North Central Washington Libraries", "Address": "101 Manson Lane", "County": "Grant", "City": "North Central Washington Libraries", "URL": "http://www.ncrl.org/locations/mattawa-public-library"}}, {"type": "Feature", "geometry": {"type": "Point", "coordinates": [47.080128, -119.855902]}, "properties": {"Name": "North Central Washington Libraries", "Address": "109 N Washington Way", "County": "Grant", "City": "North Central Washington Libraries", "URL": "http://www.ncrl.org/george"}}, {"type": "Feature", "geometry": {"type": "Point", "coordinates": [48.8838, -118.59994]}, "properties": {"Name": "North Central Washington Libraries", "Address": "11 River Street", "County": "Ferry", "City": "North Central Washington Libraries", "URL": "http://www.ncrl.org/curlew"}}, {"type": "Feature", "geometry": {"type": "Point", "coordinates": [46.20472, -119.76556]}, "properties": {"Name": "Mid-Columbia Libraries", "Address": "902 7th St", "County": "Benton", "City": "Mid-Columbia Libraries", "URL": "http://www.midcolumbialibraries.org/branch/prosser"}}, {"type": "Feature", "geometry": {"type": "Point", "coordinates": [46.23024, -119.10679]}, "properties": {"Name": "Mid-Columbia Libraries", "Address": "1320 W Hopkins St", "County": "Franklin", "City": "Mid-Columbia Libraries", "URL": "http://www.midcolumbialibraries.org"}}, {"type": "Feature", "geometry": {"type": "Point", "coordinates": [46.59213, -119.1469]}, "properties": {"Name": "Mid-Columbia Libraries", "Address": "50-A N Canal Blvd", "County": "Franklin", "City": "Mid-Columbia Libraries", "URL": "http://www.midcolumbialibraries.org"}}, {"type": "Feature", "geometry": {"type": "Point", "coordinates": [46.45987, -119.11071]}, "properties": {"Name": "Mid-Columbia Libraries", "Address": "5240 Eltopia West", "County": "Franklin", "City": "Mid-Columbia Libraries", "URL": "http://www.midcolumbialibraries.org"}}, {"type": "Feature", "geometry": {"type": "Point", "coordinates": [47.16061, -122.52065]}, "properties": {"Name": "Pierce County Library System", "Address": "6300 Wildaire Road SW", "County": "Pierce", "City": "Pierce County Library System", "URL": "http://www.piercecountylibrary.org/branches/branch-listing.htm"}}, {"type": "Feature", "geometry": {"type": "Point", "coordinates": [46.642514, -118.555487]}, "properties": {"Name": "Mid-Columbia Libraries", "Address": "225 E. Weston St.", "County": "Franklin", "City": "Mid-Columbia Libraries", "URL": "http://www.midcolumbialibraries.org"}}, {"type": "Feature", "geometry": {"type": "Point", "coordinates": [46.66077, -118.861058]}, "properties": {"Name": "Mid-Columbia Libraries", "Address": "118 N Columbia", "County": "Franklin", "City": "Mid-Columbia Libraries", "URL": "http://www.midcolumbialibraries.org"}}, {"type": "Feature", "geometry": {"type": "Point", "coordinates": [48.10594, -123.43902]}, "properties": {"Name": "North Olympic Library System", "Address": "2210 S Peabody St", "County": "Clallam", "City": "North Olympic Library System", "URL": "http://www.nols.org"}}, {"type": "Feature", "geometry": {"type": "Point", "coordinates": [48.251775, -124.260797]}, "properties": {"Name": "North Olympic Library System", "Address": "16990 Hwy 112", "County": "Clallam", "City": "North Olympic Library System", "URL": "https://www.nols.org/locations-hours/"}}, {"type": "Feature", "geometry": {"type": "Point", "coordinates": [47.94928, -124.38514]}, "properties": {"Name": "North Olympic Library System", "Address": "171 S Forks Ave S", "County": "Clallam", "City": "North Olympic Library System", "URL": "https://www.nols.org/locations-hours/"}}, {"type": "Feature", "geometry": {"type": "Point", "coordinates": [48.10594, -123.43902]}, "properties": {"Name": "North Olympic Library System", "Address": "2210 S Peabody St", "County": "Clallam", "City": "North Olympic Library System", "URL": "https://www.nols.org/locations-hours/"}}, {"type": "Feature", "geometry": {"type": "Point", "coordinates": [46.82648, -119.17376]}, "properties": {"Name": "Mid-Columbia Libraries", "Address": "101 E Main St", "County": "Adams", "City": "Mid-Columbia Libraries", "URL": "http://www.midcolumbialibraries.org"}}, {"type": "Feature", "geometry": {"type": "Point", "coordinates": [46.21379, -119.9962]}, "properties": {"Name": "Yakima Valley Libraries", "Address": "415 B Street", "County": "Yakima", "City": "Yakima Valley Libraries", "URL": "http://www.yvl.org"}}, {"type": "Feature", "geometry": {"type": "Point", "coordinates": [46.44575, -120.41883]}, "properties": {"Name": "Yakima Valley Libraries", "Address": "119 E 3rd St", "County": "Yakima", "City": "Yakima Valley Libraries", "URL": "http://www.yvl.org"}}, {"type": "Feature", "geometry": {"type": "Point", "coordinates": [47.24371, -117.36713]}, "properties": {"Name": "Whitman County Rural Library District", "Address": "402 S Whitman Ave", "County": "Whitman", "City": "Whitman County Rural Library District", "URL": "http://www.whitco.lib.wa.us/locationsandhours"}}, {"type": "Feature", "geometry": {"type": "Point", "coordinates": [47.091965, -117.581385]}, "properties": {"Name": "Whitman County Rural Library District", "Address": "E 1 Front St", "County": "Whitman", "City": "Whitman County Rural Library District", "URL": "http://www.whitco.lib.wa.us/locationsandhours"}}, {"type": "Feature", "geometry": {"type": "Point", "coordinates": [47.222443, -117.073486]}, "properties": {"Name": "Whitman County Rural Library District", "Address": "S. 139 Crosby", "County": "Whitman", "City": "Whitman County Rural Library District", "URL": "http://www.whitco.lib.wa.us/locationsandhours"}}, {"type": "Feature", "geometry": {"type": "Point", "coordinates": [46.539, -117.08763]}, "properties": {"Name": "Whitman County Rural Library District", "Address": "110 S Montgomery", "County": "Whitman", "City": "Whitman County Rural Library District", "URL": "http://www.whitco.lib.wa.us/locationsandhours"}}, {"type": "Feature", "geometry": {"type": "Point", "coordinates": [47.229136, -117.475194]}, "properties": {"Name": "Whitman County Rural Library District", "Address": "205 SW Moreland", "County": "Whitman", "City": "Whitman County Rural Library District", "URL": "http://www.whitco.lib.wa.us/locationsandhours"}}, {"type": "Feature", "geometry": {"type": "Point", "coordinates": [46.60438, -120.50426]}, "properties": {"Name": "Yakima Valley Libraries", "Address": "102 N 3rd St", "County": "Yakima", "City": "Yakima Valley Libraries", "URL": "http://www.yvl.org"}}, {"type": "Feature", "geometry": {"type": "Point", "coordinates": [46.42963, -120.31341]}, "properties": {"Name": "Yakima Valley Libraries", "Address": "801 Buena Road", "County": "Yakima", "City": "Yakima Valley Libraries", "URL": "http://www.yvl.org"}}, {"type": "Feature", "geometry": {"type": "Point", "coordinates": [47.128388, -117.243086]}, "properties": {"Name": "Whitman County Rural Library District", "Address": "E 102 Steptoe", "County": "Whitman", "City": "Whitman County Rural Library District", "URL": "http://www.whitco.lib.wa.us/locationsandhours"}}, {"type": "Feature", "geometry": {"type": "Point", "coordinates": [46.40405, -120.54321]}, "properties": {"Name": "Yakima Valley Libraries", "Address": "21 E. Pioneer", "County": "Yakima", "City": "Yakima Valley Libraries", "URL": "http://www.yvl.org"}}, {"type": "Feature", "geometry": {"type": "Point", "coordinates": [46.81484, -117.88046]}, "properties": {"Name": "Whitman County Rural Library District", "Address": "201 S Main", "County": "Whitman", "City": "Whitman County Rural Library District", "URL": "http://www.whitco.lib.wa.us/locationsandhours"}}, {"type": "Feature", "geometry": {"type": "Point", "coordinates": [46.37911, -120.3155]}, "properties": {"Name": "Yakima Valley Libraries", "Address": "1 S Elm St", "County": "Yakima", "City": "Yakima Valley Libraries", "URL": "http://www.yvl.org"}}, {"type": "Feature", "geometry": {"type": "Point", "coordinates": [46.55602, -120.39075]}, "properties": {"Name": "Yakima Valley Libraries", "Address": "225 W. Seattle", "County": "Yakima", "City": "Yakima Valley Libraries", "URL": "http://www.yvl.org"}}, {"type": "Feature", "geometry": {"type": "Point", "coordinates": [46.73255, -120.70065]}, "properties": {"Name": "Yakima Valley Libraries", "Address": "303 Naches Avenue", "County": "Yakima", "City": "Yakima Valley Libraries", "URL": "http://www.yvl.org"}}, {"type": "Feature", "geometry": {"type": "Point", "coordinates": [46.65346, -120.5321]}, "properties": {"Name": "Yakima Valley Libraries", "Address": "106 South 2nd St", "County": "Yakima", "City": "Yakima Valley Libraries", "URL": "http://www.yvl.org"}}, {"type": "Feature", "geometry": {"type": "Point", "coordinates": [46.58825, -120.49168]}, "properties": {"Name": "Yakima Valley Libraries", "Address": "1211 S 7th St", "County": "Yakima", "City": "Yakima Valley Libraries", "URL": "http://www.yvl.org"}}, {"type": "Feature", "geometry": {"type": "Point", "coordinates": [46.32106, -120.01192]}, "properties": {"Name": "Yakima Valley Libraries", "Address": "621 Grant Ave", "County": "Yakima", "City": "Yakima Valley Libraries", "URL": "http://www.yvl.org"}}, {"type": "Feature", "geometry": {"type": "Point", "coordinates": [46.60724, -120.44629]}, "properties": {"Name": "Yakima Valley Libraries", "Address": "4011 Commonwealth Rd", "County": "Yakima", "City": "Yakima Valley Libraries", "URL": "http://www.yvl.org"}}, {"type": "Feature", "geometry": {"type": "Point", "coordinates": [46.04799, -118.34714]}, "properties": {"Name": "Walla Walla County Rural Library District", "Address": "1640 Plaza Way", "County": "Walla Walla", "City": "Walla Walla County Rural Library District", "URL": "http://www.wwrurallibrary.com/branches/plaza"}}, {"type": "Feature", "geometry": {"type": "Point", "coordinates": [46.345992, -120.190301]}, "properties": {"Name": "Yakima Valley Libraries", "Address": "508 Sunnyside Avenue", "County": "Yakima", "City": "Yakima Valley Libraries", "URL": "http://www.yvl.org"}}, {"type": "Feature", "geometry": {"type": "Point", "coordinates": [48.99807, -122.25947]}, "properties": {"Name": "Whatcom County Library System", "Address": "461 2nd St", "County": "Whatcom", "City": "Whatcom County Library System", "URL": "http://www.wcls.org"}}, {"type": "Feature", "geometry": {"type": "Point", "coordinates": [47.40812, -122.31948]}, "properties": {"Name": "King County Library System", "Address": "21620 11th Ave S", "County": "King", "City": "King County Library System", "URL": "http://www.kcls.org/desmoines/"}}, {"type": "Feature", "geometry": {"type": "Point", "coordinates": [47.35901, -122.12177]}, "properties": {"Name": "King County Library System", "Address": "27100 164th Ave SE", "County": "King", "City": "King County Library System", "URL": "http://www.kcls.org/covington/"}}, {"type": "Feature", "geometry": {"type": "Point", "coordinates": [48.82987, -122.54019]}, "properties": {"Name": "Whatcom County Library System", "Address": "5205 Northwest Dr", "County": "Whatcom", "City": "Whatcom County Library System", "URL": "http://www.wcls.org"}}, {"type": "Feature", "geometry": {"type": "Point", "coordinates": [48.99472, -122.74935]}, "properties": {"Name": "Whatcom County Library System", "Address": "610 3rd St", "County": "Whatcom", "City": "Whatcom County Library System", "URL": "http://www.wcls.org/"}}, {"type": "Feature", "geometry": {"type": "Point", "coordinates": [48.82443, -122.21423]}, "properties": {"Name": "Whatcom County Library System", "Address": "5044 Mt Baker Hwy", "County": "Whatcom", "City": "Whatcom County Library System", "URL": "http://www.wcls.org/catalog"}}, {"type": "Feature", "geometry": {"type": "Point", "coordinates": [48.91956, -122.34174]}, "properties": {"Name": "Whatcom County Library System", "Address": "104 Kirsch Dr", "County": "Whatcom", "City": "Whatcom County Library System", "URL": "http://www.wcls.org/"}}, {"type": "Feature", "geometry": {"type": "Point", "coordinates": [48.84821, -122.59712]}, "properties": {"Name": "Whatcom County Library System", "Address": "2125 Main Street", "County": "Whatcom", "City": "Whatcom County Library System", "URL": "http://www.wcls.org/"}}, {"type": "Feature", "geometry": {"type": "Point", "coordinates": [48.71956, -122.68334]}, "properties": {"Name": "Whatcom County Library System", "Address": "2144 S Nugent Rd", "County": "Whatcom", "City": "Whatcom County Library System", "URL": "http://www.wcls.org/"}}, {"type": "Feature", "geometry": {"type": "Point", "coordinates": [46.9098, -117.07648]}, "properties": {"Name": "Whitman County Rural Library District", "Address": "120 E Main", "County": "Whitman", "City": "Whitman County Rural Library District", "URL": "http://www.whitco.lib.wa.us/locationsandhours"}}, {"type": "Feature", "geometry": {"type": "Point", "coordinates": [47.78703, -122.27376]}, "properties": {"Name": "Sno-Isle Libraries", "Address": "23303 Brier Rd", "County": "Snohomish", "City": "Sno-Isle Libraries", "URL": "http://www.sno-isle.org/locations/brier/"}}, {"type": "Feature", "geometry": {"type": "Point", "coordinates": [46.38185, -120.73093]}, "properties": {"Name": "Yakima Valley Libraries", "Address": "391 1st Street", "County": "Yakima", "City": "Yakima Valley Libraries", "URL": "http://www.yvl.org"}}, {"type": "Feature", "geometry": {"type": "Point", "coordinates": [47.74032, -121.98576]}, "properties": {"Name": "King County Library System", "Address": "15508 Main St NE", "County": "King", "City": "King County Library System", "URL": "https://kcls.org/locations/1503/"}}, {"type": "Feature", "geometry": {"type": "Point", "coordinates": [48.71366, -122.3245]}, "properties": {"Name": "Whatcom County Library System", "Address": "10 Barn View Ct", "County": "Whatcom", "City": "Whatcom County Library System", "URL": "www.wcls.org"}}, {"type": "Feature", "geometry": {"type": "Point", "coordinates": [46.88082, -117.36479]}, "properties": {"Name": "Whitman County Rural Library District", "Address": "102 S Main St", "County": "Whitman", "City": "Whitman County Rural Library District", "URL": "http://www.whitco.lib.wa.us"}}, {"type": "Feature", "geometry": {"type": "Point", "coordinates": [46.793716, -117.249812]}, "properties": {"Name": "Whitman County Rural Library District", "Address": "310 F St", "County": "Whitman", "City": "Whitman County Rural Library District", "URL": "http://www.whitco.lib.wa.us/locationsandhours"}}, {"type": "Feature", "geometry": {"type": "Point", "coordinates": [46.568003, -117.127812]}, "properties": {"Name": "Whitman County Rural Library District", "Address": "706 Broadway Ave.", "County": "Whitman", "City": "Whitman County Rural Library District", "URL": "http://www.whitco.lib.wa.us/locationsandhours"}}, {"type": "Feature", "geometry": {"type": "Point", "coordinates": [46.92761, -117.6849]}, "properties": {"Name": "Whitman County Rural Library District", "Address": "324 E St", "County": "Whitman", "City": "Whitman County Rural Library District", "URL": "http://www.whitco.lib.wa.us/locationsandhours"}}, {"type": "Feature", "geometry": {"type": "Point", "coordinates": [47.090219, -117.045525]}, "properties": {"Name": "Whitman County Rural Library District", "Address": "E 203 Main", "County": "Whitman", "City": "Whitman County Rural Library District", "URL": "http://www.whitco.lib.wa.us/locationsandhours"}}, {"type": "Feature", "geometry": {"type": "Point", "coordinates": [47.007582, -117.14082]}, "properties": {"Name": "Whitman County Rural Library District", "Address": "109 N 3rd", "County": "Whitman", "City": "Whitman County Rural Library District", "URL": "http://www.whitco.lib.wa.us/locationsandhours"}}, {"type": "Feature", "geometry": {"type": "Point", "coordinates": [48.94525, -122.4526]}, "properties": {"Name": "Whatcom County Library System", "Address": "216 4th St", "County": "Whatcom", "City": "Whatcom County Library System", "URL": "http://www.wcls.org"}}, {"type": "Feature", "geometry": {"type": "Point", "coordinates": [48.06251, -117.63283]}, "properties": {"Name": "Libraries of Stevens County", "Address": "4008 Cedar Street", "County": "Stevens", "City": "Libraries of Stevens County", "URL": "http://www.thelosc.org/loonlake"}}, {"type": "Feature", "geometry": {"type": "Point", "coordinates": [46.70279, -120.75508]}, "properties": {"Name": "Yakima Valley Libraries", "Address": "418 Maple Rd.", "County": "Yakima", "City": "Yakima Valley Libraries", "URL": "http://www.yvl.org"}}, {"type": "Feature", "geometry": {"type": "Point", "coordinates": [45.63798, -121.97583]}, "properties": {"Name": "Fort Vancouver Regional Libraries", "Address": "214 CBD Mall  (inside City Hall)", "County": "Skamania", "City": "Fort Vancouver Regional Libraries", "URL": "http://www.fvrl.org"}}, {"type": "Feature", "geometry": {"type": "Point", "coordinates": [45.65633, -122.58563]}, "properties": {"Name": "Fort Vancouver Regional Libraries", "Address": "8700 NE Vancouver Mall Drive, Suite 285", "County": "Clark", "City": "Fort Vancouver Regional Libraries", "URL": "http://www.fvrl.org"}}, {"type": "Feature", "geometry": {"type": "Point", "coordinates": [45.82002, -120.82327]}, "properties": {"Name": "Fort Vancouver Regional Libraries", "Address": "131 W Burgen Street", "County": "Klickitat", "City": "Fort Vancouver Regional Libraries", "URL": "http://www.fvrl.org"}}, {"type": "Feature", "geometry": {"type": "Point", "coordinates": [45.62583, -122.53587]}, "properties": {"Name": "Fort Vancouver Regional Libraries", "Address": "600 NE 136th Avenue", "County": "Clark", "City": "Fort Vancouver Regional Libraries", "URL": "http://www.fvrl.org"}}, {"type": "Feature", "geometry": {"type": "Point", "coordinates": [45.77462, -122.52401]}, "properties": {"Name": "Fort Vancouver Regional Libraries", "Address": "1207 SE 8th Way", "County": "Clark", "City": "Fort Vancouver Regional Libraries", "URL": "http://www.fvrl.org"}}, {"type": "Feature", "geometry": {"type": "Point", "coordinates": [48.27734, -117.7209]}, "properties": {"Name": "Libraries of Stevens County", "Address": "311 E Clay Ave", "County": "Stevens", "City": "Libraries of Stevens County", "URL": "http://www.thelosc.org/chewelah"}}, {"type": "Feature", "geometry": {"type": "Point", "coordinates": [45.69526, -121.8818]}, "properties": {"Name": "Fort Vancouver Regional Libraries", "Address": "120 NW Vancouver Avenue", "County": "Skamania", "City": "Fort Vancouver Regional Libraries", "URL": "http://www.fvrl.org"}}, {"type": "Feature", "geometry": {"type": "Point", "coordinates": [48.60765, -118.05614]}, "properties": {"Name": "Libraries of Stevens County", "Address": "605 Meyers St", "County": "Stevens", "City": "Libraries of Stevens County", "URL": "http://www.thelosc.org/kettlefalls"}}, {"type": "Feature", "geometry": {"type": "Point", "coordinates": [45.62848, -122.66873]}, "properties": {"Name": "Fort Vancouver Regional Libraries", "Address": "901 C Street", "County": "Clark", "City": "Fort Vancouver Regional Libraries", "URL": "http://www.fvrl.org"}}, {"type": "Feature", "geometry": {"type": "Point", "coordinates": [48.06251, -117.63283]}, "properties": {"Name": "Libraries of Stevens County", "Address": "4008 Cedar St", "County": "Stevens", "City": "Libraries of Stevens County", "URL": "http://thelosc.org/home"}}, {"type": "Feature", "geometry": {"type": "Point", "coordinates": [48.115714, -118.204115]}, "properties": {"Name": "Libraries of Stevens County", "Address": "Hunters Senior Center", "County": "Stevens", "City": "Libraries of Stevens County", "URL": "http://www.thelosc.org/hunters"}}, {"type": "Feature", "geometry": {"type": "Point", "coordinates": [48.815961, -117.81391]}, "properties": {"Name": "Libraries of Stevens County", "Address": "Onion Creek Store", "County": "Stevens", "City": "Libraries of Stevens County", "URL": "http://www.thelosc.org/onioncreek"}}, {"type": "Feature", "geometry": {"type": "Point", "coordinates": [48.91506, -117.78395]}, "properties": {"Name": "Libraries of Stevens County", "Address": "521 Center Ave", "County": "Stevens", "City": "Libraries of Stevens County", "URL": "http://www.thelosc.org/northport"}}, {"type": "Feature", "geometry": {"type": "Point", "coordinates": [47.81095, -117.56267]}, "properties": {"Name": "Libraries of Stevens County", "Address": "5919 Highway 291", "County": "Stevens", "City": "Libraries of Stevens County", "URL": "http://www.thelosc.org/lakeside"}}, {"type": "Feature", "geometry": {"type": "Point", "coordinates": [46.340149, -117.052992]}, "properties": {"Name": "Asotin County Library", "Address": "215 2nd St", "County": "Asotin", "City": "Asotin County Library", "URL": "www.asotincountylibrary.org"}}, {"type": "Feature", "geometry": {"type": "Point", "coordinates": [46.32058, -117.97683]}, "properties": {"Name": "Columbia County Rural Library District", "Address": "111 S. 3rd Street", "County": "Columbia", "City": "Columbia County Rural Library District", "URL": "https://www.ccrld.lib.wa.us"}}, {"type": "Feature", "geometry": {"type": "Point", "coordinates": [48.50427, -122.22904]}, "properties": {"Name": "Central Skagit Rural Partial County Library District", "Address": "820 Ball St", "County": "Skagit", "City": "Central Skagit Rural Partial County Library District", "URL": "http://www.centralskagitlibrary.org"}}, {"type": "Feature", "geometry": {"type": "Point", "coordinates": [48.54344, -117.90473]}, "properties": {"Name": "Libraries of Stevens County", "Address": "195 S Oak St", "County": "Stevens", "City": "Libraries of Stevens County", "URL": "http://www.thelosc.org/colville"}}, {"type": "Feature", "geometry": {"type": "Point", "coordinates": [47.31558, -122.32087]}, "properties": {"Name": "King County Library System", "Address": "848 S 320th St", "County": "King", "City": "King County Library System", "URL": "https://kcls.org/locations/1505/"}}, {"type": "Feature", "geometry": {"type": "Point", "coordinates": [46.40136, -120.25939]}, "properties": {"Name": "Yakima Valley Libraries", "Address": "109 7th Street", "County": "Yakima", "City": "Yakima Valley Libraries", "URL": "http://www.yvl.org"}}, {"type": "Feature", "geometry": {"type": "Point", "coordinates": [46.60438, -120.50426]}, "properties": {"Name": "Yakima Valley Libraries", "Address": "102 N 3rd Street", "County": "Yakima", "City": "Yakima Valley Libraries", "URL": "http://www.yvl.org"}}, {"type": "Feature", "geometry": {"type": "Point", "coordinates": [46.59481, -120.60361]}, "properties": {"Name": "Yakima Valley Libraries", "Address": "223 South 72nd Ave", "County": "Yakima", "City": "Yakima Valley Libraries", "URL": "http://www.yvl.org"}}, {"type": "Feature", "geometry": {"type": "Point", "coordinates": [47.65046, -121.91215]}, "properties": {"Name": "King County Library System", "Address": "4804 Tolt Ave", "County": "King", "City": "King County Library System", "URL": "http://www.kcls.org/carnation/"}}, {"type": "Feature", "geometry": {"type": "Point", "coordinates": [47.46714, -122.33961]}, "properties": {"Name": "King County Library System", "Address": "400 SW 152nd Street", "County": "King", "City": "King County Library System", "URL": "http://www.kcls.org/burien/"}}, {"type": "Feature", "geometry": {"type": "Point", "coordinates": [47.49525, -122.30786]}, "properties": {"Name": "King County Library System", "Address": "12015 Roseberg Ave South", "County": "King", "City": "King County Library System", "URL": "http://www.kcls.org/boulevardpark/"}}, {"type": "Feature", "geometry": {"type": "Point", "coordinates": [47.76031, -122.2104]}, "properties": {"Name": "King County Library System", "Address": "18215 98th Ave NE", "County": "King", "City": "King County Library System", "URL": "http://www.kcls.org/bothell/"}}, {"type": "Feature", "geometry": {"type": "Point", "coordinates": [47.3119, -122.01256]}, "properties": {"Name": "King County Library System", "Address": "24707 Roberts Drive", "County": "King", "City": "King County Library System", "URL": "http://www.kcls.org/blackdiamond/"}}, {"type": "Feature", "geometry": {"type": "Point", "coordinates": [45.8169, -122.74582]}, "properties": {"Name": "Fort Vancouver Regional Libraries", "Address": "210 N Main Avenue", "County": "Clark", "City": "Fort Vancouver Regional Libraries", "URL": "http://www.fvrl.org"}}, {"type": "Feature", "geometry": {"type": "Point", "coordinates": [47.27162, -122.2536]}, "properties": {"Name": "King County Library System", "Address": "255 Ellingson Road", "County": "King", "City": "King County Library System", "URL": "http://www.kcls.org/algonapacific/"}}, {"type": "Feature", "geometry": {"type": "Point", "coordinates": [48.98471, -123.07734]}, "properties": {"Name": "Whatcom County Library System", "Address": "1431 Gulf Rd", "County": "Whatcom", "City": "Whatcom County Library System", "URL": "http://www.wcls.org"}}, {"type": "Feature", "geometry": {"type": "Point", "coordinates": [47.54023, -122.05029]}, "properties": {"Name": "King County Library System", "Address": "960 Newport Way NW", "County": "King", "City": "King County Library System", "URL": "http://www.kcls.org"}}, {"type": "Feature", "geometry": {"type": "Point", "coordinates": [45.866645, -122.406519]}, "properties": {"Name": "Fort Vancouver Regional Libraries", "Address": "105 E. Yacolt Rd", "County": "Clark", "City": "Fort Vancouver Regional Libraries", "URL": "www.fvrl.org"}}, {"type": "Feature", "geometry": {"type": "Point", "coordinates": [45.86221, -122.65721]}, "properties": {"Name": "Fort Vancouver Regional Libraries", "Address": "1411 NE Lockwood Creek Road", "County": "Clark", "City": "Fort Vancouver Regional Libraries", "URL": "www.fvrl.org"}}, {"type": "Feature", "geometry": {"type": "Point", "coordinates": [45.99595, -122.38059]}, "properties": {"Name": "Fort Vancouver Regional Libraries", "Address": "11842 Lewis River Road", "County": "Cowlitz", "City": "Fort Vancouver Regional Libraries", "URL": "http://www.fvrl.org"}}, {"type": "Feature", "geometry": {"type": "Point", "coordinates": [45.7215, -122.66488]}, "properties": {"Name": "Fort Vancouver Regional Libraries", "Address": "800-C NE Tenney Road", "County": "Clark", "City": "Fort Vancouver Regional Libraries", "URL": "http://www.fvrl.org"}}, {"type": "Feature", "geometry": {"type": "Point", "coordinates": [45.90378, -122.74729]}, "properties": {"Name": "Fort Vancouver Regional Libraries", "Address": "770 Park Street", "County": "Cowlitz", "City": "Fort Vancouver Regional Libraries", "URL": "http://www.fvrl.org"}}, {"type": "Feature", "geometry": {"type": "Point", "coordinates": [45.72763, -121.48291]}, "properties": {"Name": "Fort Vancouver Regional Libraries", "Address": "77 NE Wauna Avenue", "County": "Klickitat", "City": "Fort Vancouver Regional Libraries", "URL": "http://www.fvrl.org"}}, {"type": "Feature", "geometry": {"type": "Point", "coordinates": [45.57938, -122.35406]}, "properties": {"Name": "Fort Vancouver Regional Libraries", "Address": "1661 C Street", "County": "Clark", "City": "Fort Vancouver Regional Libraries", "URL": "http://www.fvrl.org"}}, {"type": "Feature", "geometry": {"type": "Point", "coordinates": [47.6201, -122.19431]}, "properties": {"Name": "King County Library System", "Address": "1111 110th Ave NE", "County": "King", "City": "King County Library System", "URL": "https://kcls.org/locations/1492/"}}, {"type": "Feature", "geometry": {"type": "Point", "coordinates": [47.69994, -117.10587]}, "properties": {"Name": "Spokane County Library District", "Address": "22324 E Wellesley Ave", "County": "Spokane", "City": "Spokane County Library District", "URL": "http://www.scld.org"}}, {"type": "Feature", "geometry": {"type": "Point", "coordinates": [48.150208, -122.185283]}, "properties": {"Name": "Sno-Isle Libraries", "Address": "3411 169th Place NE", "County": "Snohomish", "City": "Sno-Isle Libraries", "URL": "https://www.sno-isle.org/locations/lakewood-smokeypoint/"}}, {"type": "Feature", "geometry": {"type": "Point", "coordinates": [47.69642, -117.28193]}, "properties": {"Name": "Spokane County Library District", "Address": "4322 N Argonne Rd", "County": "Spokane", "City": "Spokane County Library District", "URL": "http://www.scld.org"}}, {"type": "Feature", "geometry": {"type": "Point", "coordinates": [47.64445, -117.59267]}, "properties": {"Name": "Spokane County Library District", "Address": "1213 S Lundstrom St", "County": "Spokane", "City": "Spokane County Library District", "URL": "http://www.scld.org"}}, {"type": "Feature", "geometry": {"type": "Point", "coordinates": [47.69642, -117.28193]}, "properties": {"Name": "Spokane County Library District", "Address": "4322 N Argonne Rd", "County": "Spokane", "City": "Spokane County Library District", "URL": "http://www.scld.org"}}, {"type": "Feature", "geometry": {"type": "Point", "coordinates": [47.48855, -117.57436]}, "properties": {"Name": "Spokane County Library District", "Address": "610 1st St", "County": "Spokane", "City": "Spokane County Library District", "URL": "http://www.scld.org"}}, {"type": "Feature", "geometry": {"type": "Point", "coordinates": [47.9521, -117.46085]}, "properties": {"Name": "Spokane County Library District", "Address": "208 S Forest Ave", "County": "Spokane", "City": "Spokane County Library District", "URL": "http://www.scld.org"}}, {"type": "Feature", "geometry": {"type": "Point", "coordinates": [48.91785, -122.13838]}, "properties": {"Name": "Whatcom County Library System", "Address": "7506 Kendall Rd", "County": "Whatcom", "City": "Whatcom County Library System", "URL": "www.wcls.org"}}, {"type": "Feature", "geometry": {"type": "Point", "coordinates": [47.67576, -122.20292]}, "properties": {"Name": "King County Library System", "Address": "308 Kirkland Ave", "County": "King", "City": "King County Library System", "URL": "http://www.kcls.org/kirkland/"}}, {"type": "Feature", "geometry": {"type": "Point", "coordinates": [46.31115, -118.71974]}, "properties": {"Name": "Walla Walla County Rural Library District", "Address": "76 Sara Lynne Ln", "County": "Walla Walla", "City": "Walla Walla County Rural Library District", "URL": "http://www.wwrurallibrary.com/branches/vistahermosa"}}, {"type": "Feature", "geometry": {"type": "Point", "coordinates": [47.97761, -122.35948]}, "properties": {"Name": "Sno-Isle Libraries", "Address": "4781 Deer Lake Rd", "County": "Island", "City": "Sno-Isle Libraries", "URL": "http://www.sno-isle.org/locations/clinton/"}}, {"type": "Feature", "geometry": {"type": "Point", "coordinates": [47.65857, -117.24339]}, "properties": {"Name": "Spokane County Library District", "Address": "12004 E Main Ave", "County": "Spokane", "City": "Spokane County Library District", "URL": "http://www.scld.org"}}, {"type": "Feature", "geometry": {"type": "Point", "coordinates": [47.59949, -117.3696]}, "properties": {"Name": "Spokane County Library District", "Address": "6004 S Regal St", "County": "Spokane", "City": "Spokane County Library District", "URL": "http://www.scld.org"}}, {"type": "Feature", "geometry": {"type": "Point", "coordinates": [47.67394, -117.20811]}, "properties": {"Name": "Spokane County Library District", "Address": "14700 E Indiana Ave, Ste 2084", "County": "Spokane", "City": "Spokane County Library District", "URL": "scld.org"}}, {"type": "Feature", "geometry": {"type": "Point", "coordinates": [47.24333, -122.11302]}, "properties": {"Name": "King County Library System", "Address": "39917 Auburn-Enumclaw Rd. SE", "County": "King", "City": "King County Library System", "URL": "http://www.kcls.org/muckleshoot/"}}, {"type": "Feature", "geometry": {"type": "Point", "coordinates": [47.5669, -122.22115]}, "properties": {"Name": "King County Library System", "Address": "4400 88th Ave SE", "County": "King", "City": "King County Library System", "URL": "http://www.kcls.org/mercerisland/"}}, {"type": "Feature", "geometry": {"type": "Point", "coordinates": [47.37997, -122.0485]}, "properties": {"Name": "King County Library System", "Address": "21844 SE 248th St", "County": "King", "City": "King County Library System", "URL": "http://www.kcls.org/maplevalley/"}}, {"type": "Feature", "geometry": {"type": "Point", "coordinates": [47.60355, -122.13139]}, "properties": {"Name": "King County Library System", "Address": "15590 Lake Hills Blvd", "County": "King", "City": "King County Library System", "URL": "https://kcls.org/locations/1522/"}}, {"type": "Feature", "geometry": {"type": "Point", "coordinates": [47.75421, -122.28006]}, "properties": {"Name": "King County Library System", "Address": "17171 Bothell Way NE, Suite A134", "County": "King", "City": "King County Library System", "URL": "https://kcls.org/locations/1521"}}, {"type": "Feature", "geometry": {"type": "Point", "coordinates": [47.57125, -117.67886]}, "properties": {"Name": "Spokane County Library District", "Address": "321 E Herb St", "County": "Spokane", "City": "Spokane County Library District", "URL": "http://www.scld.org"}}, {"type": "Feature", "geometry": {"type": "Point", "coordinates": [47.84879, -121.98357]}, "properties": {"Name": "Sno-Isle Libraries", "Address": "1070 Village Way", "County": "Snohomish", "City": "Sno-Isle Libraries", "URL": "http://www.sno-isle.org/locations/monroe/"}}, {"type": "Feature", "geometry": {"type": "Point", "coordinates": [48.21932, -122.68854]}, "properties": {"Name": "Sno-Isle Libraries", "Address": "788 NW Alexander St.", "County": "Island", "City": "Sno-Isle Libraries", "URL": "http://www.sno-isle.org/locations/coupeville/"}}, {"type": "Feature", "geometry": {"type": "Point", "coordinates": [48.25468, -121.604]}, "properties": {"Name": "Sno-Isle Libraries", "Address": "1005 Cascade St", "County": "Snohomish", "City": "Sno-Isle Libraries", "URL": "http://www.sno-isle.org/locations/darrington/"}}, {"type": "Feature", "geometry": {"type": "Point", "coordinates": [47.81028, -122.37289]}, "properties": {"Name": "Sno-Isle Libraries", "Address": "650 Main St", "County": "Snohomish", "City": "Sno-Isle Libraries", "URL": "http://www.sno-isle.org/locations/edmonds/"}}, {"type": "Feature", "geometry": {"type": "Point", "coordinates": [48.01173, -122.52361]}, "properties": {"Name": "Sno-Isle Libraries", "Address": "5495 Harbor Ave", "County": "Island", "City": "Sno-Isle Libraries", "URL": "http://www.sno-isle.org/locations/freeland/"}}, {"type": "Feature", "geometry": {"type": "Point", "coordinates": [48.08235, -121.95872]}, "properties": {"Name": "Sno-Isle Libraries", "Address": "815 E Galena St", "County": "Snohomish", "City": "Sno-Isle Libraries", "URL": "http://www.sno-isle.org/locations/granitefalls/"}}, {"type": "Feature", "geometry": {"type": "Point", "coordinates": [48.01401, -122.06455]}, "properties": {"Name": "Sno-Isle Libraries", "Address": "1804 Main St", "County": "Snohomish", "City": "Sno-Isle Libraries", "URL": "http://www.sno-isle.org/locations/lakestevens/"}}, {"type": "Feature", "geometry": {"type": "Point", "coordinates": [48.04015, -122.40658]}, "properties": {"Name": "Sno-Isle Libraries", "Address": "104 2nd St", "County": "Island", "City": "Sno-Isle Libraries", "URL": "http://www.sno-isle.org/locations/langley/"}}, {"type": "Feature", "geometry": {"type": "Point", "coordinates": [47.82404, -122.29318]}, "properties": {"Name": "Sno-Isle Libraries", "Address": "19200 44th Ave W", "County": "Snohomish", "City": "Sno-Isle Libraries", "URL": "http://www.sno-isle.org/locations/lynnwood/"}}, {"type": "Feature", "geometry": {"type": "Point", "coordinates": [47.88093, -122.24142]}, "properties": {"Name": "Sno-Isle Libraries", "Address": "520 128th St. SW, Suites A9 & A10", "County": "Snohomish", "City": "Sno-Isle Libraries", "URL": "http://www.sno-isle.org/locations/mariner/"}}, {"type": "Feature", "geometry": {"type": "Point", "coordinates": [47.85766, -122.2182]}, "properties": {"Name": "Sno-Isle Libraries", "Address": "15429 Bothell-Everett Hwy", "County": "Snohomish", "City": "Sno-Isle Libraries", "URL": "http://www.sno-isle.org/locations/millcreek/"}}, {"type": "Feature", "geometry": {"type": "Point", "coordinates": [48.24128, -122.45623]}, "properties": {"Name": "Sno-Isle Libraries", "Address": "848 N Sunrise Blvd", "County": "Island", "City": "Sno-Isle Libraries", "URL": "http://www.sno-isle.org/locations/camanoisland/"}}, {"type": "Feature", "geometry": {"type": "Point", "coordinates": [47.78709, -122.31158]}, "properties": {"Name": "Sno-Isle Libraries", "Address": "23300 58th Ave W", "County": "Snohomish", "City": "Sno-Isle Libraries", "URL": "http://www.sno-isle.org/locations/mountlaketerrace/"}}, {"type": "Feature", "geometry": {"type": "Point", "coordinates": [48.28986, -122.63456]}, "properties": {"Name": "Sno-Isle Libraries", "Address": "1000 SE Regatta Dr", "County": "Island", "City": "Sno-Isle Libraries", "URL": "http://www.sno-isle.org/locations/oakharbor/"}}, {"type": "Feature", "geometry": {"type": "Point", "coordinates": [48.06274, -122.18587]}, "properties": {"Name": "Sno-Isle Libraries", "Address": "7312 35th Ave NE", "County": "Snohomish", "City": "Sno-Isle Libraries", "URL": "http://www.sno-isle.org/wheels/"}}, {"type": "Feature", "geometry": {"type": "Point", "coordinates": [47.91543, -122.0885]}, "properties": {"Name": "Sno-Isle Libraries", "Address": "311 Maple Ave", "County": "Snohomish", "City": "Sno-Isle Libraries", "URL": "http://www.sno-isle.org/locations/snohomish/"}}, {"type": "Feature", "geometry": {"type": "Point", "coordinates": [48.24238, -122.36418]}, "properties": {"Name": "Sno-Isle Libraries", "Address": "9701 271st St NW", "County": "Snohomish", "City": "Sno-Isle Libraries", "URL": "http://www.sno-isle.org/locations/stanwood/"}}, {"type": "Feature", "geometry": {"type": "Point", "coordinates": [47.86249, -121.81691]}, "properties": {"Name": "Sno-Isle Libraries", "Address": "319 Main St, Ste 100", "County": "Snohomish", "City": "Sno-Isle Libraries", "URL": "http://www.sno-isle.org/locations/sultan/"}}, {"type": "Feature", "geometry": {"type": "Point", "coordinates": [47.90559, -122.29685]}, "properties": {"Name": "Sno-Isle Libraries", "Address": "4675 Harbour Pointe Blvd", "County": "Snohomish", "City": "Sno-Isle Libraries", "URL": "http://www.sno-isle.org/locations/mukilteo/"}}, {"type": "Feature", "geometry": {"type": "Point", "coordinates": [47.75175, -117.41113]}, "properties": {"Name": "Spokane County Library District", "Address": "44 E Hawthorne Rd", "County": "Spokane", "City": "Spokane County Library District", "URL": "http://www.scld.org"}}, {"type": "Feature", "geometry": {"type": "Point", "coordinates": [48.06365, -122.14784]}, "properties": {"Name": "Sno-Isle Libraries", "Address": "6120 Grove St", "County": "Snohomish", "City": "Sno-Isle Libraries", "URL": "http://www.sno-isle.org/locations/marysville/"}}, {"type": "Feature", "geometry": {"type": "Point", "coordinates": [46.8569, -122.85184]}, "properties": {"Name": "Timberland Regional Library", "Address": "172 Central Ave W", "County": "Thurston", "City": "Timberland Regional Library", "URL": "http://www.trl.org/Locations/Pages/LibraryInformation.aspx?lib=te"}}, {"type": "Feature", "geometry": {"type": "Point", "coordinates": [46.36613, -123.81184]}, "properties": {"Name": "Timberland Regional Library", "Address": "4 Parpala Rd", "County": "Pacific", "City": "Timberland Regional Library", "URL": "http://www.trl.org/Locations/Pages/LibraryInformation.aspx?lib=na"}}, {"type": "Feature", "geometry": {"type": "Point", "coordinates": [46.83992, -123.23271]}, "properties": {"Name": "Timberland Regional Library", "Address": "204 Main St", "County": "Grays harbor", "City": "Timberland Regional Library", "URL": "http://www.trl.org/Locations/Pages/LibraryInformation.aspx?lib=ok"}}, {"type": "Feature", "geometry": {"type": "Point", "coordinates": [47.04141, -122.89805]}, "properties": {"Name": "Timberland Regional Library", "Address": "313 8th Ave SE", "County": "Thurston", "City": "Timberland Regional Library", "URL": "http://www.trl.org/Locations/Pages/LibraryInformation.aspx?lib=ol"}}, {"type": "Feature", "geometry": {"type": "Point", "coordinates": [46.6064, -121.67209]}, "properties": {"Name": "Timberland Regional Library", "Address": "109 W Main St", "County": "Lewis", "City": "Timberland Regional Library", "URL": "http://www.trl.org/Locations/Pages/LibraryInformation.aspx?lib=pa"}}, {"type": "Feature", "geometry": {"type": "Point", "coordinates": [46.68683, -123.73058]}, "properties": {"Name": "Timberland Regional Library", "Address": "507 Duryea St", "County": "Pacific", "City": "Timberland Regional Library", "URL": "http://www.trl.org/Locations/Pages/LibraryInformation.aspx?lib=ra"}}, {"type": "Feature", "geometry": {"type": "Point", "coordinates": [46.53135, -122.63001]}, "properties": {"Name": "Timberland Regional Library", "Address": "2480 US Hwy 12", "County": "Lewis", "City": "Timberland Regional Library", "URL": "http://www.trl.org/Locations/Pages/LibraryInformation.aspx?lib=sa"}}, {"type": "Feature", "geometry": {"type": "Point", "coordinates": [47.72973, -122.17641]}, "properties": {"Name": "King County Library System", "Address": "12315 NE 143rd St", "County": "King", "City": "King County Library System", "URL": "http://www.kcls.org/kingsgate/"}}, {"type": "Feature", "geometry": {"type": "Point", "coordinates": [46.53576, -121.95943]}, "properties": {"Name": "Timberland Regional Library", "Address": "210 Silverbrook Rd", "County": "Lewis", "City": "Timberland Regional Library", "URL": "http://www.trl.org/Locations/Pages/LibraryInformation.aspx?lib=mv"}}, {"type": "Feature", "geometry": {"type": "Point", "coordinates": [46.666677, -123.814793]}, "properties": {"Name": "Timberland Regional Library", "Address": "1st & Pacific", "County": "Pacific", "City": "Timberland Regional Library", "URL": "http://www.trl.org/Locations/Pages/LibraryInformation.aspx?lib=sb"}}, {"type": "Feature", "geometry": {"type": "Point", "coordinates": [47.44174, -122.83405]}, "properties": {"Name": "Timberland Regional Library", "Address": "23081 NE State Route 3", "County": "Mason", "City": "Timberland Regional Library", "URL": "http://www.trl.org/Locations/Pages/LibraryInformation.aspx?lib=nm"}}, {"type": "Feature", "geometry": {"type": "Point", "coordinates": [46.98491, -122.91343]}, "properties": {"Name": "Timberland Regional Library", "Address": "7023 New Market St SW", "County": "Thurston", "City": "Timberland Regional Library", "URL": "http://www.trl.org/Locations/Pages/LibraryInformation.aspx?lib=tu"}}, {"type": "Feature", "geometry": {"type": "Point", "coordinates": [46.98065, -123.6012]}, "properties": {"Name": "Timberland Regional Library", "Address": "125 Main St S", "County": "Grays harbor", "City": "Timberland Regional Library", "URL": "http://www.trl.org/Locations/Pages/LibraryInformation.aspx?lib=mo"}}, {"type": "Feature", "geometry": {"type": "Point", "coordinates": [46.88558, -124.10355]}, "properties": {"Name": "Timberland Regional Library", "Address": "101 E. Harms Dr.", "County": "Grays harbor", "City": "Timberland Regional Library", "URL": "http://www.trl.org/Locations/Pages/LibraryInformation.aspx?lib=we"}}, {"type": "Feature", "geometry": {"type": "Point", "coordinates": [47.21692, -123.10725]}, "properties": {"Name": "Timberland Regional Library", "Address": "710 W Alder St", "County": "Mason", "City": "Timberland Regional Library", "URL": "http://www.trl.org/Locations/Pages/LibraryInformation.aspx?lib=sh"}}, {"type": "Feature", "geometry": {"type": "Point", "coordinates": [46.49228, -122.93636]}, "properties": {"Name": "Timberland Regional Library", "Address": "322 NE 1st St.", "County": "Lewis", "City": "Timberland Regional Library", "URL": "http://www.trl.org/Locations/Pages/LibraryInformation.aspx?lib=wi"}}, {"type": "Feature", "geometry": {"type": "Point", "coordinates": [46.93916, -122.5995]}, "properties": {"Name": "Timberland Regional Library", "Address": "210 Prairie Park St", "County": "Thurston", "City": "Timberland Regional Library", "URL": "http://www.trl.org/Locations/Pages/LibraryInformation.aspx?lib=ye"}}, {"type": "Feature", "geometry": {"type": "Point", "coordinates": [46.05801, -118.36353]}, "properties": {"Name": "Walla Walla County Rural Library District", "Address": "37 Jade St", "County": "Walla Walla", "City": "Walla Walla County Rural Library District", "URL": "https://wwrurallib.ent.sirsi.net/"}}, {"type": "Feature", "geometry": {"type": "Point", "coordinates": [46.20959, -118.99279]}, "properties": {"Name": "Walla Walla County Rural Library District", "Address": "875 Lake Rd", "County": "Walla Walla", "City": "Walla Walla County Rural Library District", "URL": "http://www.wwrurallibrary.com/branches/burbank"}}, {"type": "Feature", "geometry": {"type": "Point", "coordinates": [47.38534, -117.17046]}, "properties": {"Name": "Spokane County Library District", "Address": "305 E Main", "County": "Spokane", "City": "Spokane County Library District", "URL": "http://www.scld.org"}}, {"type": "Feature", "geometry": {"type": "Point", "coordinates": [46.71614, -122.95637]}, "properties": {"Name": "Timberland Regional Library", "Address": "110 S Silver St", "County": "Lewis", "City": "Timberland Regional Library", "URL": "http://www.trl.org/Locations/Pages/LibraryInformation.aspx?lib=ce"}}, {"type": "Feature", "geometry": {"type": "Point", "coordinates": [47.568755, -121.89417]}, "properties": {"Name": "King County Library System", "Address": "33415 SE 42nd Pl", "County": "King", "City": "King County Library System", "URL": "http://www.kcls.org/fallcity/"}}, {"type": "Feature", "geometry": {"type": "Point", "coordinates": [47.45083, -122.15451]}, "properties": {"Name": "King County Library System", "Address": "17009 140th Ave SE", "County": "King", "City": "King County Library System", "URL": "http://www.kcls.org/fairwood/"}}, {"type": "Feature", "geometry": {"type": "Point", "coordinates": [46.980302, -122.909743]}, "properties": {"Name": "Timberland Regional Library", "Address": "415 Tumwater Blvd SW", "County": "Thurston", "City": "Timberland Regional Library", "URL": "http://www.trl.org"}}, {"type": "Feature", "geometry": {"type": "Point", "coordinates": [46.299238, -118.315508]}, "properties": {"Name": "Walla Walla County Rural Library District", "Address": "103 South D Street", "County": "Walla Walla", "City": "Walla Walla County Rural Library District", "URL": "http://www.wwrurallibrary.com/branches/prescott"}}, {"type": "Feature", "geometry": {"type": "Point", "coordinates": [46.97529, -123.81759]}, "properties": {"Name": "Timberland Regional Library", "Address": "121 E Market St", "County": "Grays harbor", "City": "Timberland Regional Library", "URL": "http://www.trl.org/Locations/Pages/LibraryInformation.aspx?lib=ab"}}, {"type": "Feature", "geometry": {"type": "Point", "coordinates": [47.47441, -122.28414]}, "properties": {"Name": "King County Library System", "Address": "14380 Tukwila International Boulevard", "County": "King", "City": "King County Library System", "URL": "https://kcls.org/locations/154/"}}, {"type": "Feature", "geometry": {"type": "Point", "coordinates": [46.487889, -124.051587]}, "properties": {"Name": "Timberland Regional Library", "Address": "1308 256th Place", "County": "Pacific", "City": "Timberland Regional Library", "URL": "http://www.trl.org/Locations/Pages/LibraryInformation.aspx?lib=op"}}, {"type": "Feature", "geometry": {"type": "Point", "coordinates": [47.53041, -122.03688]}, "properties": {"Name": "King County Library System", "Address": "10 W Sunset Way", "County": "King", "City": "King County Library System", "URL": "http://www.kcls.org/issaquah/"}}, {"type": "Feature", "geometry": {"type": "Point", "coordinates": [47.05488, -123.2669]}, "properties": {"Name": "Timberland Regional Library", "Address": "121 S 4th St", "County": "Grays harbor", "City": "Timberland Regional Library", "URL": "http://www.trl.org/Locations/Pages/LibraryInformation.aspx?lib=mc"}}, {"type": "Feature", "geometry": {"type": "Point", "coordinates": [47.29459, -122.33184]}, "properties": {"Name": "King County Library System", "Address": "34200 1st Way S", "County": "King", "City": "King County Library System", "URL": "https://kcls.org/locations/1509/"}}, {"type": "Feature", "geometry": {"type": "Point", "coordinates": [47.75936, -122.25236]}, "properties": {"Name": "King County Library System", "Address": "6531 NE 181st St.", "County": "King", "City": "King County Library System", "URL": "http://www.kcls.org/kenmore/"}}, {"type": "Feature", "geometry": {"type": "Point", "coordinates": [46.66464, -122.96756]}, "properties": {"Name": "Timberland Regional Library", "Address": "400 N Market Blvd.", "County": "Lewis", "City": "Timberland Regional Library", "URL": "http://www.trl.org/Locations/Pages/LibraryInformation.aspx?lib=ch"}}, {"type": "Feature", "geometry": {"type": "Point", "coordinates": [46.04341, -118.67478]}, "properties": {"Name": "Walla Walla County Rural Library District", "Address": "161 Hanson Rd", "County": "Walla Walla", "City": "Walla Walla County Rural Library District", "URL": "http://www.wwrurallibrary.com/branches/touchet"}}, {"type": "Feature", "geometry": {"type": "Point", "coordinates": [47.005301, -123.401461]}, "properties": {"Name": "Timberland Regional Library", "Address": "118 N 1st St", "County": "Grays harbor", "City": "Timberland Regional Library", "URL": "http://www.trl.org/Locations/Pages/LibraryInformation.aspx?lib=el"}}, {"type": "Feature", "geometry": {"type": "Point", "coordinates": [47.40538, -123.14157]}, "properties": {"Name": "Timberland Regional Library", "Address": "40 N Schoolhouse Hill Rd", "County": "Mason", "City": "Timberland Regional Library", "URL": "http://www.trl.org/Locations/Pages/LibraryInformation.aspx?lib=hp"}}, {"type": "Feature", "geometry": {"type": "Point", "coordinates": [46.97714, -123.88716]}, "properties": {"Name": "Timberland Regional Library", "Address": "420 7th St", "County": "Grays harbor", "City": "Timberland Regional Library", "URL": "http://www.trl.org/Locations/Pages/LibraryInformation.aspx?lib=ho"}}, {"type": "Feature", "geometry": {"type": "Point", "coordinates": [47.38242, -122.23414]}, "properties": {"Name": "King County Library System", "Address": "212 2nd Ave N", "County": "King", "City": "King County Library System", "URL": "https://kcls.org/locations/1520/"}}, {"type": "Feature", "geometry": {"type": "Point", "coordinates": [46.31101, -124.04291]}, "properties": {"Name": "Timberland Regional Library", "Address": "158 1st Ave N", "County": "Pacific", "City": "Timberland Regional Library", "URL": "http://www.trl.org/Locations/Pages/LibraryInformation.aspx?lib=il"}}, {"type": "Feature", "geometry": {"type": "Point", "coordinates": [47.04399, -122.82237]}, "properties": {"Name": "Timberland Regional Library", "Address": "500 College St SE", "County": "Thurston", "City": "Timberland Regional Library", "URL": "http://www.trl.org/Locations/Pages/LibraryInformation.aspx?lib=la"}}, {"type": "Feature", "geometry": {"type": "Point", "coordinates": [47.45902, -123.89826]}, "properties": {"Name": "Timberland Regional Library", "Address": "6118 US Hwy 101", "County": "Grays harbor", "City": "Timberland Regional Library", "URL": "http://www.trl.org/Locations/Pages/LibraryInformation.aspx?lib=am"}}, {"type": "Feature", "geometry": {"type": "Point", "coordinates": [48.03258, -122.77258]}, "properties": {"Name": "Jefferson County Library", "Address": "620 Cedar Ave", "County": "Jefferson", "City": "Jefferson County Library", "URL": "http://www.jclibrary.info"}}, {"type": "Feature", "geometry": {"type": "Point", "coordinates": [46.3927, -117.08181]}, "properties": {"Name": "Asotin County Library", "Address": "2036 4th Ave", "County": "Asotin", "City": "Asotin County Library", "URL": "http://www.asotincountylibrary.org"}}, {"type": "Feature", "geometry": {"type": "Point", "coordinates": [48.75441, -122.47881]}, "properties": {"Name": "Bellingham Public Library", "Address": "210 Central Avenue", "County": "Whatcom", "City": "Bellingham Public Library", "URL": "http://www.bellinghampubliclibrary.org"}}, {"type": "Feature", "geometry": {"type": "Point", "coordinates": [46.41264, -117.04314]}, "properties": {"Name": "Asotin County Library", "Address": "417 Sycamore Street", "County": "Asotin", "City": "Asotin County Library", "URL": "http://www.asotincountylibrary.org"}}, {"type": "Feature", "geometry": {"type": "Point", "coordinates": [46.009794, -122.845106]}, "properties": {"Name": "Kalama Public Library", "Address": "312 N Ist Street", "County": "Cowlitz", "City": "Kalama Public Library", "URL": "http://www.kalamalibrary.com"}}, {"type": "Feature", "geometry": {"type": "Point", "coordinates": [47.75906, -118.70482]}, "properties": {"Name": "Hesseltine Public Library", "Address": "14 NW Division", "County": "Lincoln", "City": "Hesseltine Public Library", "URL": "http://www.wilbur.lib.wa.us"}}, {"type": "Feature", "geometry": {"type": "Point", "coordinates": [48.72141, -122.50184]}, "properties": {"Name": "Bellingham Public Library", "Address": "1117 12th Street", "County": "Whatcom", "City": "Bellingham Public Library", "URL": "http://www.bellinghampubliclibrary.org/"}}, {"type": "Feature", "geometry": {"type": "Point", "coordinates": [46.99397, -120.54488]}, "properties": {"Name": "Ellensburg Public Library", "Address": "209 N Ruby St", "County": "kittitas", "City": "Ellensburg Public Library", "URL": "http://www.ellensburglibrary.org"}}, {"type": "Feature", "geometry": {"type": "Point", "coordinates": [47.480133, -118.254641]}, "properties": {"Name": "Harrington Public Library", "Address": "11 S 3rd St", "County": "Lincoln", "City": "Harrington Public Library", "URL": "http://harrington.lib.wa.us/"}}, {"type": "Feature", "geometry": {"type": "Point", "coordinates": [48.51466, -122.61647]}, "properties": {"Name": "Anacortes Public Library", "Address": "1220 10th St", "County": "Skagit", "City": "Anacortes Public Library", "URL": "https://www.anacorteswa.gov/220/Library"}}, {"type": "Feature", "geometry": {"type": "Point", "coordinates": [48.77193, -122.44391]}, "properties": {"Name": "Bellingham Public Library", "Address": "3111 Newmarket Street, Suite 103", "County": "Whatcom", "City": "Bellingham Public Library", "URL": "http://www.bellinghampubliclibrary.org/"}}, {"type": "Feature", "geometry": {"type": "Point", "coordinates": [46.25598, -119.91042]}, "properties": {"Name": "Grandview Library", "Address": "500 W. Main Street", "County": "Yakima", "City": "Grandview Library", "URL": "http://www.grandview.wa.us/departments/library/"}}, {"type": "Feature", "geometry": {"type": "Point", "coordinates": [47.98168, -122.21036]}, "properties": {"Name": "Everett Public Library", "Address": "2702 Hoyt Avenue", "County": "Snohomish", "City": "Everett Public Library", "URL": "http://www.epls.org"}}, {"type": "Feature", "geometry": {"type": "Point", "coordinates": [47.91234, -122.23825]}, "properties": {"Name": "Everett Public Library", "Address": "9512 Evergreen Way", "County": "Snohomish", "City": "Everett Public Library", "URL": "http://www.epls.org"}}, {"type": "Feature", "geometry": {"type": "Point", "coordinates": [46.47127, -117.58902]}, "properties": {"Name": "Denny Ashby Library", "Address": "856 Arlington St", "County": "Garfield", "City": "Denny Ashby Library", "URL": "http://www.pomeroy.lib.wa.us"}}, {"type": "Feature", "geometry": {"type": "Point", "coordinates": [48.47446, -122.32389]}, "properties": {"Name": "Burlington Public Library", "Address": "820 E. Washington Avenue", "County": "Skagit", "City": "Burlington Public Library", "URL": "http://www.burlingtonwa.gov/library"}}, {"type": "Feature", "geometry": {"type": "Point", "coordinates": [45.58706, -122.40227]}, "properties": {"Name": "Camas Public Library", "Address": "625 NE 4th Avenue", "County": "Clark", "City": "Camas Public Library", "URL": "http://www.camaslibrary.org"}}, {"type": "Feature", "geometry": {"type": "Point", "coordinates": [47.19585, -120.93808]}, "properties": {"Name": "Carpenter Memorial Library", "Address": "302 N Pennsylvania Ave", "County": "kittitas", "City": "Carpenter Memorial Library", "URL": "http://www.carpenter.lib.wa.us"}}, {"type": "Feature", "geometry": {"type": "Point", "coordinates": [46.27505, -122.90976]}, "properties": {"Name": "Castle Rock Public Library", "Address": "137 Cowlitz St W", "County": "Cowlitz", "City": "Castle Rock Public Library", "URL": "http://www.crplibrary.com"}}, {"type": "Feature", "geometry": {"type": "Point", "coordinates": [47.65397, -118.15096]}, "properties": {"Name": "Davenport Public Library", "Address": "505 7th St", "County": "Lincoln", "City": "Davenport Public Library", "URL": "http://www.davenport.lib.wa.us"}}, {"type": "Feature", "geometry": {"type": "Point", "coordinates": [47.20361, -121.98751]}, "properties": {"Name": "King County Library System", "Address": "1700 First Street", "County": "King", "City": "King County Library System", "URL": "https://kcls.org/locations/119/"}}, {"type": "Feature", "geometry": {"type": "Point", "coordinates": [46.13937, -122.90064]}, "properties": {"Name": "Kelso Public Library", "Address": "351 Three Rivers Dr., Ste 1263", "County": "Cowlitz", "City": "Kelso Public Library", "URL": "http://www.kelso.gov/library"}}, {"type": "Feature", "geometry": {"type": "Point", "coordinates": [47.53899, -122.29094]}, "properties": {"Name": "Seattle Public Library - Central Library", "Address": "7058 32nd Ave. S.", "County": "King", "City": "Seattle Public Library - Central Library", "URL": "https://www.spl.org/hours-and-locations/newholly-branch"}}, {"type": "Feature", "geometry": {"type": "Point", "coordinates": [46.20127, -123.38423]}, "properties": {"Name": "Cathlamet Public Library", "Address": "115 Columbia Street", "County": "Wahkiakum", "City": "Cathlamet Public Library", "URL": "http://www.cathlamet.lib.wa.us"}}, {"type": "Feature", "geometry": {"type": "Point", "coordinates": [47.2522, -122.44475]}, "properties": {"Name": "Tacoma Public Library - Main Branch", "Address": "1102 Tacoma Avenue South", "County": "Pierce", "City": "Tacoma Public Library - Main Branch", "URL": "https://www.tacomalibrary.org"}}, {"type": "Feature", "geometry": {"type": "Point", "coordinates": [47.66116, -122.33893]}, "properties": {"Name": "Seattle Public Library - Central Library", "Address": "1501 N. 45th St.", "County": "King", "City": "Seattle Public Library - Central Library", "URL": "https://www.spl.org/hours-and-locations/wallingford-branch"}}, {"type": "Feature", "geometry": {"type": "Point", "coordinates": [47.58269, -122.38475]}, "properties": {"Name": "Seattle Public Library - Central Library", "Address": "2306 42nd Ave. S.W.", "County": "King", "City": "Seattle Public Library - Central Library", "URL": "https://www.spl.org/hours-and-locations/west-seattle-branch"}}, {"type": "Feature", "geometry": {"type": "Point", "coordinates": [47.55304, -122.36329]}, "properties": {"Name": "Seattle Public Library - Central Library", "Address": "5423 Delridge Way S.W.", "County": "King", "City": "Seattle Public Library - Central Library", "URL": "https://www.spl.org/hours-and-locations/delridge-branch"}}, {"type": "Feature", "geometry": {"type": "Point", "coordinates": [47.59615, -122.32267]}, "properties": {"Name": "Seattle Public Library - Central Library", "Address": "713 Eighth Ave. S.", "County": "King", "City": "Seattle Public Library - Central Library", "URL": "https://www.spl.org/hours-and-locations/international-district-chinatown-branch"}}, {"type": "Feature", "geometry": {"type": "Point", "coordinates": [47.70602, -122.3228]}, "properties": {"Name": "Seattle Public Library - Central Library", "Address": "10548 Fifth Ave. N.E.", "County": "King", "City": "Seattle Public Library - Central Library", "URL": "https://www.spl.org/hours-and-locations/northgate-branch"}}, {"type": "Feature", "geometry": {"type": "Point", "coordinates": [47.52629, -122.32258]}, "properties": {"Name": "Seattle Public Library - Central Library", "Address": "8604 Eighth Ave. S.", "County": "King", "City": "Seattle Public Library - Central Library", "URL": "https://www.spl.org/hours-and-locations/south-park-branch"}}, {"type": "Feature", "geometry": {"type": "Point", "coordinates": [47.65922, -117.42522]}, "properties": {"Name": "Spokane Public Library", "Address": "906 W Main Ave", "County": "Spokane", "City": "Spokane Public Library", "URL": "http://www.spokanelibrary.org"}}, {"type": "Feature", "geometry": {"type": "Point", "coordinates": [47.65099, -117.37697]}, "properties": {"Name": "Spokane Public Library", "Address": "524 S Stone St", "County": "Spokane", "City": "Spokane Public Library", "URL": "http://www.spokanelibrary.org/east-side/"}}, {"type": "Feature", "geometry": {"type": "Point", "coordinates": [47.69474, -117.37387]}, "properties": {"Name": "Spokane Public Library", "Address": "4005 N Cook St", "County": "Spokane", "City": "Spokane Public Library", "URL": "http://www.spokanelibrary.org/hillyard/"}}, {"type": "Feature", "geometry": {"type": "Point", "coordinates": [47.62422, -117.39058]}, "properties": {"Name": "Spokane Public Library", "Address": "3324 S Perry St", "County": "Spokane", "City": "Spokane Public Library", "URL": "http://www.spokanelibrary.org/south-hill/"}}, {"type": "Feature", "geometry": {"type": "Point", "coordinates": [47.70028, -117.44217]}, "properties": {"Name": "Spokane Public Library", "Address": "2111 W Wellesley Ave", "County": "Spokane", "City": "Spokane Public Library", "URL": "http://www.spokanelibrary.org/shadle/"}}, {"type": "Feature", "geometry": {"type": "Point", "coordinates": [47.66553, -122.31786]}, "properties": {"Name": "Seattle Public Library - Central Library", "Address": "5009 Roosevelt Way N.E.", "County": "King", "City": "Seattle Public Library - Central Library", "URL": "https://www.spl.org/hours-and-locations/university-branch"}}, {"type": "Feature", "geometry": {"type": "Point", "coordinates": [47.29917, -117.97662]}, "properties": {"Name": "Sprague Public Library", "Address": "119 W 2nd St", "County": "Lincoln", "City": "Sprague Public Library", "URL": "http://sprague.lib.wa.us/"}}, {"type": "Feature", "geometry": {"type": "Point", "coordinates": [47.20666, -122.43511]}, "properties": {"Name": "Tacoma Public Library - Main Branch", "Address": "215 S 56th Street", "County": "Pierce", "City": "Tacoma Public Library - Main Branch", "URL": "https://www.tacomalibrary.org"}}, {"type": "Feature", "geometry": {"type": "Point", "coordinates": [47.18143, -122.44288]}, "properties": {"Name": "Tacoma Public Library - Main Branch", "Address": "765 South 84th Street", "County": "Pierce", "City": "Tacoma Public Library - Main Branch", "URL": "https://www.tacomalibrary.org"}}, {"type": "Feature", "geometry": {"type": "Point", "coordinates": [47.28783, -122.3864]}, "properties": {"Name": "Tacoma Public Library - Main Branch", "Address": "212 Browns Point Blvd NE", "County": "Pierce", "City": "Tacoma Public Library - Main Branch", "URL": "https://www.tacomalibrary.org"}}, {"type": "Feature", "geometry": {"type": "Point", "coordinates": [47.22875, -122.42178]}, "properties": {"Name": "Tacoma Public Library - Main Branch", "Address": "3523 East G Street", "County": "Pierce", "City": "Tacoma Public Library - Main Branch", "URL": "https://www.tacomalibrary.org"}}, {"type": "Feature", "geometry": {"type": "Point", "coordinates": [47.25582, -122.53067]}, "properties": {"Name": "Tacoma Public Library - Main Branch", "Address": "7001 6th Avenue", "County": "Pierce", "City": "Tacoma Public Library - Main Branch", "URL": "https://www.tacomalibrary.org"}}, {"type": "Feature", "geometry": {"type": "Point", "coordinates": [47.27101, -122.48633]}, "properties": {"Name": "Tacoma Public Library - Main Branch", "Address": "3722 N 26th Street", "County": "Pierce", "City": "Tacoma Public Library - Main Branch", "URL": "https://www.tacomalibrary.org"}}, {"type": "Feature", "geometry": {"type": "Point", "coordinates": [46.06711, -118.33443]}, "properties": {"Name": "Walla Walla Public Library", "Address": "238 E Alder St", "County": "Walla Walla", "City": "Walla Walla Public Library", "URL": "http://wallawallapubliclibrary.org"}}, {"type": "Feature", "geometry": {"type": "Point", "coordinates": [46.27004, -118.15519]}, "properties": {"Name": "Weller Public Library", "Address": "212 Main", "County": "Walla Walla", "City": "Weller Public Library", "URL": "nan"}}, {"type": "Feature", "geometry": {"type": "Point", "coordinates": [46.984227, -120.418783]}, "properties": {"Name": "Gilmour Memorial Library", "Address": "200 N. Pierce Street", "County": "kittitas", "City": "Gilmour Memorial Library", "URL": "https://www.facebook.com/kittitaslibrary"}}, {"type": "Feature", "geometry": {"type": "Point", "coordinates": [47.62283, -122.32224]}, "properties": {"Name": "Seattle Public Library - Central Library", "Address": "425 Harvard Ave. E.", "County": "King", "City": "Seattle Public Library - Central Library", "URL": "https://www.spl.org/hours-and-locations/capitol-hill-branch"}}, {"type": "Feature", "geometry": {"type": "Point", "coordinates": [48.50469, -122.23909]}, "properties": {"Name": "Central Skagit Rural Partial County Library District", "Address": "720 Metcalf St", "County": "Skagit", "City": "Central Skagit Rural Partial County Library District", "URL": "http://www.centralskagitlibrary.org"}}, {"type": "Feature", "geometry": {"type": "Point", "coordinates": [47.67177, -117.09426]}, "properties": {"Name": "Liberty Lake Municipal Library", "Address": "23123 E Mission Ave", "County": "Spokane", "City": "Liberty Lake Municipal Library", "URL": "http://www.libertylakewa.gov/435/library"}}, {"type": "Feature", "geometry": {"type": "Point", "coordinates": [48.53688, -121.75901]}, "properties": {"Name": "Upper Skagit Library", "Address": "45770B Main St, PO BOX 99", "County": "Skagit", "City": "Upper Skagit Library", "URL": "www.upperskagitlibrary.org"}}, {"type": "Feature", "geometry": {"type": "Point", "coordinates": [47.7404, -117.48272]}, "properties": {"Name": "Spokane Public Library", "Address": "4909 W Barnes Rd", "County": "Spokane", "City": "Spokane Public Library", "URL": "http://www.spokanelibrary.org/indian-trail/"}}, {"type": "Feature", "geometry": {"type": "Point", "coordinates": [47.60648, -122.33296]}, "properties": {"Name": "Seattle Public Library - Central Library", "Address": "1000 Fourth Ave.", "County": "King", "City": "Seattle Public Library - Central Library", "URL": "https://www.spl.org/"}}, {"type": "Feature", "geometry": {"type": "Point", "coordinates": [47.20669, -122.48207]}, "properties": {"Name": "Tacoma Public Library - Main Branch", "Address": "3411 S 56th Street", "County": "Pierce", "City": "Tacoma Public Library - Main Branch", "URL": "https://www.tacomalibrary.org"}}, {"type": "Feature", "geometry": {"type": "Point", "coordinates": [46.1407, -122.93797]}, "properties": {"Name": "Longview Public Library", "Address": "1600 Louisiana St", "County": "Cowlitz", "City": "Longview Public Library", "URL": "http://www.longviewlibrary.org"}}, {"type": "Feature", "geometry": {"type": "Point", "coordinates": [46.96673, -124.15429]}, "properties": {"Name": "Ocean Shores Public Library", "Address": "573 Pt Brown Ave NW", "County": "Grays harbor", "City": "Ocean Shores Public Library", "URL": "http://oslibrary.info"}}, {"type": "Feature", "geometry": {"type": "Point", "coordinates": [47.33334, -118.68949]}, "properties": {"Name": "Odessa Public Library", "Address": "21 E 1st Ave", "County": "Lincoln", "City": "Odessa Public Library", "URL": "http://odessa.lib.wa.us/"}}, {"type": "Feature", "geometry": {"type": "Point", "coordinates": [48.11657, -122.76346]}, "properties": {"Name": "Port Townsend Public Library", "Address": "1220 Lawrence Street", "County": "Jefferson", "City": "Port Townsend Public Library", "URL": "http://www.ptpubliclibrary.org"}}, {"type": "Feature", "geometry": {"type": "Point", "coordinates": [47.18976, -122.29377]}, "properties": {"Name": "Puyallup Public Library", "Address": "324 S Meridian", "County": "Pierce", "City": "Puyallup Public Library", "URL": "http://www.puyalluplibrary.org"}}, {"type": "Feature", "geometry": {"type": "Point", "coordinates": [47.66914, -117.88162]}, "properties": {"Name": "Reardan Memorial Library", "Address": "120 S. Oak", "County": "Lincoln", "City": "Reardan Memorial Library", "URL": "http://www.reardan.lib.wa.us/"}}, {"type": "Feature", "geometry": {"type": "Point", "coordinates": [46.7288, -117.18285]}, "properties": {"Name": "Neill Public Library", "Address": "210 N. Grand Ave", "County": "Whitman", "City": "Neill Public Library", "URL": "http://www.neill-lib.org"}}, {"type": "Feature", "geometry": {"type": "Point", "coordinates": [46.27978, -119.27891]}, "properties": {"Name": "Richland Public Library", "Address": "955 Northgate Dr", "County": "Benton", "City": "Richland Public Library", "URL": "http://richland.lib.wa.us"}}, {"type": "Feature", "geometry": {"type": "Point", "coordinates": [47.52244, -122.37629]}, "properties": {"Name": "Seattle Public Library - Central Library", "Address": "9010 35th Ave. S.W.", "County": "King", "City": "Seattle Public Library - Central Library", "URL": "https://www.spl.org/hours-and-locations/southwest-branch"}}, {"type": "Feature", "geometry": {"type": "Point", "coordinates": [47.22207, -120.99205]}, "properties": {"Name": "Roslyn Public Library", "Address": "201 S. First Street", "County": "Kittitas", "City": "Roslyn Public Library", "URL": "http://www.roslynlibrary.org"}}, {"type": "Feature", "geometry": {"type": "Point", "coordinates": [47.72301, -122.35624]}, "properties": {"Name": "Seattle Public Library - Central Library", "Address": "12755 Greenwood Ave. N.", "County": "King", "City": "Seattle Public Library - Central Library", "URL": "https://www.spl.org/hours-and-locations/broadview-branch"}}, {"type": "Feature", "geometry": {"type": "Point", "coordinates": [47.61264, -122.2901]}, "properties": {"Name": "Seattle Public Library - Central Library", "Address": "1134 33rd Ave.", "County": "King", "City": "Seattle Public Library - Central Library", "URL": "https://www.spl.org/hours-and-locations/madrona-sally-goldmark-branch"}}, {"type": "Feature", "geometry": {"type": "Point", "coordinates": [47.52148, -122.27065]}, "properties": {"Name": "Seattle Public Library - Central Library", "Address": "9125 Rainier Ave. S.", "County": "King", "City": "Seattle Public Library - Central Library", "URL": "https://www.spl.org/hours-and-locations/rainier-beach-branch"}}, {"type": "Feature", "geometry": {"type": "Point", "coordinates": [47.63382, -122.36275]}, "properties": {"Name": "Seattle Public Library - Central Library", "Address": "400 W. Garfield St.", "County": "King", "City": "Seattle Public Library - Central Library", "URL": "https://www.spl.org/hours-and-locations/queen-anne-branch"}}, {"type": "Feature", "geometry": {"type": "Point", "coordinates": [47.67786, -122.29071]}, "properties": {"Name": "Seattle Public Library - Central Library", "Address": "6801 35th Ave. N.E.", "County": "King", "City": "Seattle Public Library - Central Library", "URL": "https://www.spl.org/hours-and-locations/northeast-branch"}}, {"type": "Feature", "geometry": {"type": "Point", "coordinates": [48.41572, -122.33805]}, "properties": {"Name": "Mount Vernon City Library", "Address": "315 Snoqualmie Street", "County": "Skagit", "City": "Mount Vernon City Library", "URL": "http://www.mountvernonwa.gov/library"}}, {"type": "Feature", "geometry": {"type": "Point", "coordinates": [47.64531, -122.40134]}, "properties": {"Name": "Seattle Public Library - Central Library", "Address": "2801 34th Ave. W.", "County": "King", "City": "Seattle Public Library - Central Library", "URL": "https://www.spl.org/hours-and-locations/magnolia-branch"}}, {"type": "Feature", "geometry": {"type": "Point", "coordinates": [47.55982, -122.28676]}, "properties": {"Name": "Seattle Public Library - Central Library", "Address": "4721 Rainier Ave. S.", "County": "King", "City": "Seattle Public Library - Central Library", "URL": "https://www.spl.org/hours-and-locations/columbia-branch"}}, {"type": "Feature", "geometry": {"type": "Point", "coordinates": [47.71979, -122.29809]}, "properties": {"Name": "Seattle Public Library - Central Library", "Address": "12501 28th Ave NE", "County": "King", "City": "Seattle Public Library - Central Library", "URL": "https://www.spl.org/hours-and-locations/lake-city-branch"}}, {"type": "Feature", "geometry": {"type": "Point", "coordinates": [47.54815, -122.37606]}, "properties": {"Name": "Seattle Public Library - Central Library", "Address": "3411 S.W. Raymond St.", "County": "King", "City": "Seattle Public Library - Central Library", "URL": "https://www.spl.org/hours-and-locations/high-point-branch"}}, {"type": "Feature", "geometry": {"type": "Point", "coordinates": [47.68744, -122.35485]}, "properties": {"Name": "Seattle Public Library - Central Library", "Address": "8016 Greenwood Ave. N.", "County": "King", "City": "Seattle Public Library - Central Library", "URL": "https://www.spl.org/hours-and-locations/greenwood-branch"}}, {"type": "Feature", "geometry": {"type": "Point", "coordinates": [47.68148, -122.3267]}, "properties": {"Name": "Seattle Public Library - Central Library", "Address": "7364 E. Green Lake Dr. N.", "County": "King", "City": "Seattle Public Library - Central Library", "URL": "https://www.spl.org/hours-and-locations/green-lake-branch"}}, {"type": "Feature", "geometry": {"type": "Point", "coordinates": [47.65002, -122.34844]}, "properties": {"Name": "Seattle Public Library - Central Library", "Address": "731 N. 35th St.", "County": "King", "City": "Seattle Public Library - Central Library", "URL": "https://www.spl.org/hours-and-locations/fremont-branch"}}, {"type": "Feature", "geometry": {"type": "Point", "coordinates": [47.6019, -122.30177]}, "properties": {"Name": "Seattle Public Library - Central Library", "Address": "2300 E. Yesler Way", "County": "King", "City": "Seattle Public Library - Central Library", "URL": "https://www.spl.org/hours-and-locations/douglass-truth-branch"}}, {"type": "Feature", "geometry": {"type": "Point", "coordinates": [47.64042, -122.30236]}, "properties": {"Name": "Seattle Public Library - Central Library", "Address": "2401 24th Ave. E.", "County": "King", "City": "Seattle Public Library - Central Library", "URL": "https://www.spl.org/hours-and-locations/montlake-branch"}}, {"type": "Feature", "geometry": {"type": "Point", "coordinates": [47.65086, -122.35412]}, "properties": {"Name": "Shannon and Wilson, Inc. Technical Library", "Address": "400 N 34th St, Ste 100", "County": "King", "City": "Shannon and Wilson, Inc. Technical Library", "URL": "http://www.shannonwilson.com"}}, {"type": "Feature", "geometry": {"type": "Point", "coordinates": [48.46745, -122.43756]}, "properties": {"Name": "PACCAR Technical Library", "Address": "12479 Farm to Market Rd", "County": "Skagit", "City": "PACCAR Technical Library", "URL": "http://www.paccar.com"}}, {"type": "Feature", "geometry": {"type": "Point", "coordinates": [47.70306, -122.15661]}, "properties": {"Name": "Aerojet Rocketdyne Technical Library", "Address": "11411 139th PL N.E.", "County": "King", "City": "Aerojet Rocketdyne Technical Library", "URL": "nan"}}, {"type": "Feature", "geometry": {"type": "Point", "coordinates": [47.64002, -122.12979]}, "properties": {"Name": "Microsoft Library", "Address": "One Microsoft Way, Bldg 92", "County": "King", "City": "Microsoft Library", "URL": "nan"}}, {"type": "Feature", "geometry": {"type": "Point", "coordinates": [47.24275, -122.53018]}, "properties": {"Name": "APA - The Engineered Wood Association", "Address": "7011 S 19th St", "County": "Pierce", "City": "APA - The Engineered Wood Association", "URL": "http://apawood.org"}}, {"type": "Feature", "geometry": {"type": "Point", "coordinates": [47.62016, -122.33067]}, "properties": {"Name": "NBBJ Library", "Address": "223 Yale Ave N", "County": "King", "City": "NBBJ Library", "URL": "http://www.nbbj.com"}}, {"type": "Feature", "geometry": {"type": "Point", "coordinates": [47.598713, -122.328622]}, "properties": {"Name": "Sound Transit Research Library", "Address": "Union Station", "County": "King", "City": "Sound Transit Research Library", "URL": "nan"}}, {"type": "Feature", "geometry": {"type": "Point", "coordinates": [47.15484, -122.28119]}, "properties": {"Name": "Parametrix Library", "Address": "1019 39th Ave. SE", "County": "Pierce", "City": "Parametrix Library", "URL": "http://www.parametrix.com"}}, {"type": "Feature", "geometry": {"type": "Point", "coordinates": [47.61322, -122.33131]}, "properties": {"Name": "Seattle Theatre Group Historical Theatres Library", "Address": "911 Pine Street 4th Floor", "County": "King", "City": "Seattle Theatre Group Historical Theatres Library", "URL": "http://www.stgpresents.org/library"}}, {"type": "Feature", "geometry": {"type": "Point", "coordinates": [48.5348, -122.62443]}, "properties": {"Name": "Guemes Island Library", "Address": "7549 Guemes Island Rd", "County": "Skagit", "City": "Guemes Island Library", "URL": "http://guemeslibrary.com"}}, {"type": "Feature", "geometry": {"type": "Point", "coordinates": [47.5652, -122.31306]}, "properties": {"Name": "Burke Museum", "Address": "4300 15th Ave NE", "County": "King", "City": "Burke Museum", "URL": "http://www.burkemuseum.org"}}, {"type": "Feature", "geometry": {"type": "Point", "coordinates": [48.53576, -123.01719]}, "properties": {"Name": "Whale Museum Library", "Address": "62 First St N", "County": "San Juan", "City": "Whale Museum Library", "URL": "http://www.whalemuseum.org"}}, {"type": "Feature", "geometry": {"type": "Point", "coordinates": [47.55824, -122.37857]}, "properties": {"Name": "Providence Archives, Seattle", "Address": "4800 37th Avenue SW", "County": "King", "City": "Providence Archives, Seattle", "URL": "http://www.providence.org/archives"}}, {"type": "Feature", "geometry": {"type": "Point", "coordinates": [47.63464, -122.27683]}, "properties": {"Name": "Fiske Genealogical Library", "Address": "1644 43rd Ave E", "County": "King", "City": "Fiske Genealogical Library", "URL": "https://fiskelibrary.org"}}, {"type": "Feature", "geometry": {"type": "Point", "coordinates": [46.57044, -120.5248]}, "properties": {"Name": "Yakima Valley Genealogical Society Library", "Address": "1901 S 12th Ave", "County": "Yakima", "City": "Yakima Valley Genealogical Society Library", "URL": "http://www.yvgs.net"}}, {"type": "Feature", "geometry": {"type": "Point", "coordinates": [48.16718, -122.14822]}, "properties": {"Name": "Stillaguamish Valley Genealogical Society", "Address": "6111 - 188th Pl. NE", "County": "Snohomish", "City": "Stillaguamish Valley Genealogical Society", "URL": "http://www.stillygen.org"}}, {"type": "Feature", "geometry": {"type": "Point", "coordinates": [47.6686, -122.39092]}, "properties": {"Name": "Cultural Resource Center, National Nordic Museum", "Address": "2655 NW Market Street", "County": "King", "City": "Cultural Resource Center, National Nordic Museum", "URL": "https://nordicmuseum.org/collections/research"}}, {"type": "Feature", "geometry": {"type": "Point", "coordinates": [47.65668, -117.448353]}, "properties": {"Name": "Joel E. Ferris Research Archives", "Address": "2316 W 1st Ave", "County": "Spokane", "City": "Joel E. Ferris Research Archives", "URL": "http://www.northwestmuseum.org"}}, {"type": "Feature", "geometry": {"type": "Point", "coordinates": [47.54965, -122.3278]}, "properties": {"Name": "Puget Sound Maritime", "Address": "5933 6th Avenue South", "County": "King", "City": "Puget Sound Maritime", "URL": "http://www.pugetmaritime.org"}}, {"type": "Feature", "geometry": {"type": "Point", "coordinates": [47.51901, -122.29709]}, "properties": {"Name": "The Museum of Flight", "Address": "9404 East Marginal Way South", "County": "King", "City": "The Museum of Flight", "URL": "http://www.museumofflight.org"}}, {"type": "Feature", "geometry": {"type": "Point", "coordinates": [47.17727, -122.56448]}, "properties": {"Name": "Historic Fort Steilacoom Reseach Library", "Address": "9601 Steilacoom Blvd SW", "County": "Pierce", "City": "Historic Fort Steilacoom Reseach Library", "URL": "http://www.historicfortsteilacoom.org"}}, {"type": "Feature", "geometry": {"type": "Point", "coordinates": [47.818339, -122.277492]}, "properties": {"Name": "Sno-Isle Genealogical Society", "Address": "Humble House at Heritage Park", "County": "Snohomish", "City": "Sno-Isle Genealogical Society", "URL": "http://www.rootsweb.ancestry.com/~wasigs/"}}, {"type": "Feature", "geometry": {"type": "Point", "coordinates": [47.627604, -122.336783]}, "properties": {"Name": "Museum of History & Industry", "Address": "860 Terry Ave N", "County": "King", "City": "Museum of History & Industry", "URL": "http://www.mohai.org"}}, {"type": "Feature", "geometry": {"type": "Point", "coordinates": [47.60452, -122.33061]}, "properties": {"Name": "Karr Tuttle Campbell Library", "Address": "701 Fifth Avenue, Suite 3300", "County": "King", "City": "Karr Tuttle Campbell Library", "URL": "http://www.karrtuttle.com"}}, {"type": "Feature", "geometry": {"type": "Point", "coordinates": [47.60549, -122.33319]}, "properties": {"Name": "K&L Gates, LLP Library", "Address": "925 4th Ave, Ste 2900", "County": "King", "City": "K&L Gates, LLP Library", "URL": "http://www.klgates.com"}}, {"type": "Feature", "geometry": {"type": "Point", "coordinates": [47.61054, -122.33466]}, "properties": {"Name": "Lane Powell PC", "Address": "1420 5th Ave", "County": "King", "City": "Lane Powell PC", "URL": "http://www.lanepowell.com/"}}, {"type": "Feature", "geometry": {"type": "Point", "coordinates": [47.60608, -122.33301]}, "properties": {"Name": "Fox Rothschild  Library", "Address": "1001 Fourth Ave.", "County": "King", "City": "Fox Rothschild  Library", "URL": "http://www.foxrothschild.com/"}}, {"type": "Feature", "geometry": {"type": "Point", "coordinates": [47.614719, -122.356248]}, "properties": {"Name": "Miller Nash LLP Library", "Address": "2801 Alaskan Way #300", "County": "King", "City": "Miller Nash LLP Library", "URL": "http://www.millernash.com"}}, {"type": "Feature", "geometry": {"type": "Point", "coordinates": [47.60613, -122.33673]}, "properties": {"Name": "Garvey Schubert Barer Library", "Address": "1191 2nd Avenue, Suite 1800", "County": "King", "City": "Garvey Schubert Barer Library", "URL": "http://www.gsblaw.com"}}, {"type": "Feature", "geometry": {"type": "Point", "coordinates": [47.60655, -122.33533]}, "properties": {"Name": "Foster Pepper PLLC", "Address": "1111 3rd Avenue, Ste. 3000", "County": "King", "City": "Foster Pepper PLLC", "URL": "http://www.foster.com/"}}, {"type": "Feature", "geometry": {"type": "Point", "coordinates": [47.6059, -122.3311]}, "properties": {"Name": "Davis Wright Tremaine LLP Research and Library", "Address": "902 Fifth Ave", "County": "King", "City": "Davis Wright Tremaine LLP Research and Library", "URL": "nan"}}, {"type": "Feature", "geometry": {"type": "Point", "coordinates": [47.60717, -122.33594]}, "properties": {"Name": "Perkins Coie LLP Library", "Address": "1201 Third Ave., Ste. 4900", "County": "King", "City": "Perkins Coie LLP Library", "URL": "nan"}}, {"type": "Feature", "geometry": {"type": "Point", "coordinates": [46.71429, -117.17696]}, "properties": {"Name": "Pullman Regional Hospital Health Resource Library", "Address": "835 SE Bishop Blvd.", "County": "Whitman", "City": "Pullman Regional Hospital Health Resource Library", "URL": "http://www.pullmanregional.org/educational-resources"}}, {"type": "Feature", "geometry": {"type": "Point", "coordinates": [47.12857, -119.26543]}, "properties": {"Name": "Masto Health Library & Education Center", "Address": "801 E Wheeler Rd", "County": "Grant", "City": "Masto Health Library & Education Center", "URL": "https://www.samaritanhealthcare.com/resources/masto-health-library.aspx"}}, {"type": "Feature", "geometry": {"type": "Point", "coordinates": [47.66093, -122.31625]}, "properties": {"Name": "UW Alcohol & Drug Abuse Institute Library", "Address": "1107 NE 45th St, Suite 120", "County": "King", "City": "UW Alcohol & Drug Abuse Institute Library", "URL": "http://adai.uw.edu"}}, {"type": "Feature", "geometry": {"type": "Point", "coordinates": [46.98729, -120.53749]}, "properties": {"Name": "KVH Community Health Library", "Address": "603 S Chestnut St", "County": "kittitas", "City": "KVH Community Health Library", "URL": "http://www.kvhealthcare.org/hospital-services/community-health-library/"}}, {"type": "Feature", "geometry": {"type": "Point", "coordinates": [47.662112, -122.283331]}, "properties": {"Name": "Seattle Children's", "Address": "Library & Information Commons, OB.8.520", "County": "King", "City": "Seattle Children's", "URL": "nan"}}, {"type": "Feature", "geometry": {"type": "Point", "coordinates": [47.67974, -122.36626]}, "properties": {"Name": "NAMI Seattle", "Address": "802 NW 70th St", "County": "King", "City": "NAMI Seattle", "URL": "http://www.namiseattle.org"}}, {"type": "Feature", "geometry": {"type": "Point", "coordinates": [47.6286, -122.33044]}, "properties": {"Name": "Fred Hutchinson Cancer Research Center", "Address": "1100 Fairview Ave N.", "County": "King", "City": "Fred Hutchinson Cancer Research Center", "URL": "http://sharedresources.fhcrc.org/core-facilities/library"}}, {"type": "Feature", "geometry": {"type": "Point", "coordinates": [47.61801, -122.33883]}, "properties": {"Name": "PATH Library", "Address": "2201 Westlake Avenue, Suite 200", "County": "King", "City": "PATH Library", "URL": "https://www.path.org/resources/"}}, {"type": "Feature", "geometry": {"type": "Point", "coordinates": [47.70293, -117.47622]}, "properties": {"Name": "VA Puget Sound Health Care System - American Lake Division", "Address": "4815 N Assembly St", "County": "Spokane", "City": "VA Puget Sound Health Care System - American Lake Division", "URL": "nan"}}, {"type": "Feature", "geometry": {"type": "Point", "coordinates": [47.56217, -122.31021]}, "properties": {"Name": "VA Puget Sound Health Care System - American Lake Division", "Address": "1660 S Columbian Way", "County": "King", "City": "VA Puget Sound Health Care System - American Lake Division", "URL": "nan"}}, {"type": "Feature", "geometry": {"type": "Point", "coordinates": [47.245358, -122.450047]}, "properties": {"Name": "CHI Franciscan Library", "Address": "1717 S J St", "County": "Pierce", "City": "CHI Franciscan Library", "URL": "nan"}}, {"type": "Feature", "geometry": {"type": "Point", "coordinates": [47.130969, -122.579412]}, "properties": {"Name": "VA Puget Sound Health Care System - American Lake Division", "Address": "Library Service (A-142D)", "County": "Pierce", "City": "VA Puget Sound Health Care System - American Lake Division", "URL": "http://www.pugetsound.va.gov/"}}, {"type": "Feature", "geometry": {"type": "Point", "coordinates": [45.63803, -122.659189]}, "properties": {"Name": "VA Puget Sound Health Care System - American Lake Division", "Address": "1601 E. Fourth Plain Blvd", "County": "Clark", "City": "VA Puget Sound Health Care System - American Lake Division", "URL": "nan"}}, {"type": "Feature", "geometry": {"type": "Point", "coordinates": [47.60953, -122.32792]}, "properties": {"Name": "Virginia Mason Medical Center", "Address": "1100 Ninth Ave", "County": "King", "City": "Virginia Mason Medical Center", "URL": "nan"}}, {"type": "Feature", "geometry": {"type": "Point", "coordinates": [48.77395, -122.47323]}, "properties": {"Name": "PeaceHealth St. Joseph Medical Center Library", "Address": "2901 Squalicum Pkwy", "County": "Whatcom", "City": "PeaceHealth St. Joseph Medical Center Library", "URL": "http://www.peacehealth.org/health-information/Pages/medical-libraries.aspx"}}, {"type": "Feature", "geometry": {"type": "Point", "coordinates": [47.64798, -117.41122]}, "properties": {"Name": "Providence St. Joseph Health Sacred Heart Medical Center", "Address": "101 W Eighth Avenue", "County": "Spokane", "City": "Providence St. Joseph Health Sacred Heart Medical Center", "URL": "https://www.providence.org/for-employees/library"}}, {"type": "Feature", "geometry": {"type": "Point", "coordinates": [47.052847, -122.84438]}, "properties": {"Name": "Providence St. Peter Hospital Library Service", "Address": "MS: DDH08", "County": "Thurston", "City": "Providence St. Peter Hospital Library Service", "URL": "nan"}}, {"type": "Feature", "geometry": {"type": "Point", "coordinates": [47.60839, -122.32213]}, "properties": {"Name": "Swedish Medical Center/First Hill", "Address": "747 Broadway", "County": "King", "City": "Swedish Medical Center/First Hill", "URL": "http://www.swedish.org/For-Health-Professionals/Professional-Resources/Library-Services"}}, {"type": "Feature", "geometry": {"type": "Point", "coordinates": [47.7158, -122.1787]}, "properties": {"Name": "EvergreenHealth", "Address": "12040 NE 128th Street", "County": "King", "City": "EvergreenHealth", "URL": "nan"}}, {"type": "Feature", "geometry": {"type": "Point", "coordinates": [48.50065, -122.61583]}, "properties": {"Name": "Island Hospital Medical Library", "Address": "1211 24th St", "County": "Skagit", "City": "Island Hospital Medical Library", "URL": "http://www.islandhospital.org"}}, {"type": "Feature", "geometry": {"type": "Point", "coordinates": [46.13009, -122.94189]}, "properties": {"Name": "St. John Medical Center", "Address": "1615 Delaware St", "County": "Cowlitz", "City": "St. John Medical Center", "URL": "http://www.peacehealth.org/health-information/Pages/medical-libraries.aspx"}}, {"type": "Feature", "geometry": {"type": "Point", "coordinates": [47.650512, -122.309153]}, "properties": {"Name": "NNLM Pacific Northwest Region", "Address": "Health Science Building, Room T334", "County": "King", "City": "NNLM Pacific Northwest Region", "URL": "http://www.nnlm.gov/pnr/"}}, {"type": "Feature", "geometry": {"type": "Point", "coordinates": [48.41875, -122.32422]}, "properties": {"Name": "Skagit Regional Health", "Address": "1415 E Kincaid St", "County": "Skagit", "City": "Skagit Regional Health", "URL": "http://www.skagitvalleyhospital.org"}}, {"type": "Feature", "geometry": {"type": "Point", "coordinates": [46.05348, -118.3556]}, "properties": {"Name": "VA Puget Sound Health Care System - American Lake Division", "Address": "77 Wainwright Dr", "County": "Walla Walla", "City": "VA Puget Sound Health Care System - American Lake Division", "URL": "nan"}}, {"type": "Feature", "geometry": {"type": "Point", "coordinates": [47.40665, -120.32104]}, "properties": {"Name": "Confluence Health", "Address": "1201 S. Miller Street", "County": "Chelan", "City": "Confluence Health", "URL": "http://cwhs.libguides.com/libraryresources"}}, {"type": "Feature", "geometry": {"type": "Point", "coordinates": [47.341468, -124.290262]}, "properties": {"Name": "Quinault Nation Tribal Library", "Address": "807 5th Avenue, Suite 1", "County": "Grays harbor", "City": "Quinault Nation Tribal Library", "URL": "http://quinaultindiannation.com"}}, {"type": "Feature", "geometry": {"type": "Point", "coordinates": [46.132, -122.93153]}, "properties": {"Name": "Cowlitz Tribal Library", "Address": "1055 9th Ave, Ste D", "County": "Cowlitz", "City": "Cowlitz Tribal Library", "URL": "nan"}}, {"type": "Feature", "geometry": {"type": "Point", "coordinates": [48.32064, -121.55423]}, "properties": {"Name": "Sauk-Suiattle Tribal Library", "Address": "5318 Chief Brown Ln", "County": "Snohomish", "City": "Sauk-Suiattle Tribal Library", "URL": "nan"}}, {"type": "Feature", "geometry": {"type": "Point", "coordinates": [47.3276, -123.15305]}, "properties": {"Name": "Skokomish Tribal Center", "Address": "80 N Tribal Center Rd", "County": "Mason", "City": "Skokomish Tribal Center", "URL": "nan"}}, {"type": "Feature", "geometry": {"type": "Point", "coordinates": [48.21557, -122.15842]}, "properties": {"Name": "Stillaguamish Tribal Library", "Address": "24308 55th Avenue NE", "County": "Snohomish", "City": "Stillaguamish Tribal Library", "URL": "nan"}}, {"type": "Feature", "geometry": {"type": "Point", "coordinates": [47.00462, -122.67046]}, "properties": {"Name": "Nisqually Tribal Library", "Address": "4814 She Nah Num Dr SE", "County": "Thurston", "City": "Nisqually Tribal Library", "URL": "http://www.nisqually-nsn.gov"}}, {"type": "Feature", "geometry": {"type": "Point", "coordinates": [48.79009, -122.66151]}, "properties": {"Name": "Lummi Library", "Address": "2522 Kwina Rd", "County": "Whatcom", "City": "Lummi Library", "URL": "http://www.nwic.edu/lummi-library/"}}, {"type": "Feature", "geometry": {"type": "Point", "coordinates": [48.46029, -122.56424]}, "properties": {"Name": "Samish Indian Nation Tribal Library", "Address": "8327 Summit Park Rd.", "County": "Skagit", "City": "Samish Indian Nation Tribal Library", "URL": "http://samishtribe.nsn.us"}}, {"type": "Feature", "geometry": {"type": "Point", "coordinates": [48.368344, -124.599458]}, "properties": {"Name": "Makah Cultural and Research Center Archives and Library Department", "Address": "1880 Bayview Ave Hwy 112", "County": "Clallam", "City": "Makah Cultural and Research Center Archives and Library Department", "URL": "http://makah.com"}}, {"type": "Feature", "geometry": {"type": "Point", "coordinates": [48.82354, -122.2158]}, "properties": {"Name": "Nooksack Tribal Library", "Address": "5016 Deming Road", "County": "Whatcom", "City": "Nooksack Tribal Library", "URL": "http://nooksack-tribe.org"}}, {"type": "Feature", "geometry": {"type": "Point", "coordinates": [48.05351, -122.20173]}, "properties": {"Name": "Hibulb Cultural Center", "Address": "6410 23rd Avenue NE", "County": "Snohomish", "City": "Hibulb Cultural Center", "URL": "http://www.hibulbculturalcenter.org/Education/Library"}}, {"type": "Feature", "geometry": {"type": "Point", "coordinates": [48.130521, -118.975232]}, "properties": {"Name": "Nespelem Library - Confederated Tribes of the Colville Reservation", "Address": "12 Lakes Ave.", "County": "Okanogan", "City": "Nespelem Library - Confederated Tribes of the Colville Reservation", "URL": "https://www.cct-ene.com/library/"}}, {"type": "Feature", "geometry": {"type": "Point", "coordinates": [46.3804, -120.34349]}, "properties": {"Name": "Yakama Nation Library", "Address": "100 Spiel-yi Loop", "County": "Yakima", "City": "Yakama Nation Library", "URL": "http://www.yakamamuseum.com/library.php"}}, {"type": "Feature", "geometry": {"type": "Point", "coordinates": [48.54106, -122.19223]}, "properties": {"Name": "Upper Skagit Indian Tribal Library", "Address": "25704 Coyote Dr", "County": "Skagit", "City": "Upper Skagit Indian Tribal Library", "URL": "nan"}}, {"type": "Feature", "geometry": {"type": "Point", "coordinates": [47.21185, -122.35486]}, "properties": {"Name": "Chief Leschi Secondary School", "Address": "5625 52nd St E", "County": "Pierce", "City": "Chief Leschi Secondary School", "URL": "nan"}}, {"type": "Feature", "geometry": {"type": "Point", "coordinates": [48.39488, -122.50074]}, "properties": {"Name": "Swinomish Indian Tribe Library", "Address": "17337 Reservation Rd", "County": "Skagit", "City": "Swinomish Indian Tribe Library", "URL": "nan"}}, {"type": "Feature", "geometry": {"type": "Point", "coordinates": [47.908177, -124.639196]}, "properties": {"Name": "Quileute Tribal Libraries", "Address": "40 Ocean Dr.", "County": "Jefferson", "City": "Quileute Tribal Libraries", "URL": "nan"}}, {"type": "Feature", "geometry": {"type": "Point", "coordinates": [47.121183, -123.081526]}, "properties": {"Name": "Squaxin Island Museum Library and Research Center", "Address": "150 SE Kwuh-deegs-altxw", "County": "Mason", "City": "Squaxin Island Museum Library and Research Center", "URL": "http://squaxinmuseum.org"}}, {"type": "Feature", "geometry": {"type": "Point", "coordinates": [46.559155, -120.476114]}, "properties": {"Name": "Yakama Nation Library", "Address": "2808 Main St, Union Gap", "County": "Yakima", "City": "Yakama Nation Library", "URL": "nan"}}, {"type": "Feature", "geometry": {"type": "Point", "coordinates": [48.300751, -118.20194]}, "properties": {"Name": "Nespelem Library - Confederated Tribes of the Colville Reservation", "Address": "12 Community Loop Rd", "County": "Ferry", "City": "Nespelem Library - Confederated Tribes of the Colville Reservation", "URL": "https://www.cct-ene.com/library/"}}, {"type": "Feature", "geometry": {"type": "Point", "coordinates": [48.07872, -118.68483]}, "properties": {"Name": "Nespelem Library - Confederated Tribes of the Colville Reservation", "Address": "11673 S Highway 21", "County": "Ferry", "City": "Nespelem Library - Confederated Tribes of the Colville Reservation", "URL": "https://www.cct-ene.com/library/"}}, {"type": "Feature", "geometry": {"type": "Point", "coordinates": [47.74091, -124.41231]}, "properties": {"Name": "Hoh Tribal Library", "Address": "2269 Lower Hoh Rd", "County": "Jefferson", "City": "Hoh Tribal Library", "URL": "https://www.facebook.com/HohTribalLibrary/"}}, {"type": "Feature", "geometry": {"type": "Point", "coordinates": [48.02804, -122.99428]}, "properties": {"Name": "Jamestown S'Klallam Tribal Library", "Address": "1070 Old Blyn Hwy", "County": "Clallam", "City": "Jamestown S'Klallam Tribal Library", "URL": "http://library.jamestowntribe.org/"}}, {"type": "Feature", "geometry": {"type": "Point", "coordinates": [48.34308, -117.30267]}, "properties": {"Name": "Kalispel Tribal Library", "Address": "57 Tule Road", "County": "Pend Oreille", "City": "Kalispel Tribal Library", "URL": "http://kalispeltribe.com/programs-and-services/education/tribal-library"}}, {"type": "Feature", "geometry": {"type": "Point", "coordinates": [48.14242, -123.5556]}, "properties": {"Name": "Lower Elwha Klallam Tribal Library", "Address": "2851 Lower Elwha Rd", "County": "Clallam", "City": "Lower Elwha Klallam Tribal Library", "URL": "http://www.elwha.org"}}, {"type": "Feature", "geometry": {"type": "Point", "coordinates": [47.85288, -122.56981]}, "properties": {"Name": "Little Boston Library", "Address": "31980 Little Boston Rd NE", "County": "Kitsap", "City": "Little Boston Library", "URL": "http://www.krl.org"}}, {"type": "Feature", "geometry": {"type": "Point", "coordinates": [46.72801, -124.04676]}, "properties": {"Name": "Shoalwater Bay Tribal Community Library", "Address": "4112 SR 105", "County": "Pacific", "City": "Shoalwater Bay Tribal Community Library", "URL": "http://www.shoalwaterbay-nsn.gov"}}, {"type": "Feature", "geometry": {"type": "Point", "coordinates": [46.06567, -118.33707]}, "properties": {"Name": "Walla Walla Union-Bulletin Library", "Address": "112 S. First Ave.", "County": "Walla Walla", "City": "Walla Walla Union-Bulletin Library", "URL": "http://www.union-bulletin.com"}}, {"type": "Feature", "geometry": {"type": "Point", "coordinates": [47.04354, -122.8987]}, "properties": {"Name": "Olympian Library", "Address": "522 Franklin St SE", "County": "Thurston", "City": "Olympian Library", "URL": "http://www.theolympian.com"}}, {"type": "Feature", "geometry": {"type": "Point", "coordinates": [47.6577, -117.42629]}, "properties": {"Name": "The Spokesman-Review", "Address": "999 W Riverside Avenue", "County": "Spokane", "City": "The Spokesman-Review", "URL": "http://www.spokesman.com"}}, {"type": "Feature", "geometry": {"type": "Point", "coordinates": [47.61906, -122.33651]}, "properties": {"Name": "The Seattle Times", "Address": "1000 Denny Way", "County": "King", "City": "The Seattle Times", "URL": "nan"}}, {"type": "Feature", "geometry": {"type": "Point", "coordinates": [47.68512, -122.26387]}, "properties": {"Name": "Mountaineers Library", "Address": "7700 Sand Point Way NE", "County": "King", "City": "Mountaineers Library", "URL": "http://www.mountaineers.org"}}, {"type": "Feature", "geometry": {"type": "Point", "coordinates": [47.60377, -122.32842]}, "properties": {"Name": "Bill and Melinda Gates Foundation", "Address": "500 5th AVE", "County": "King", "City": "Bill and Melinda Gates Foundation", "URL": "http://www.gatesfoundation.org"}}, {"type": "Feature", "geometry": {"type": "Point", "coordinates": [47.66909, -122.38579]}, "properties": {"Name": "Seattle Metaphysical Library, The", "Address": "2220 NW Market St, #L-05", "County": "King", "City": "Seattle Metaphysical Library, The", "URL": "http://www.seattlemetaphysicallibrary.org"}}, {"type": "Feature", "geometry": {"type": "Point", "coordinates": [47.113554, -122.552106]}, "properties": {"Name": "Madigan Army Medical Center", "Address": "9040 Jackson Ave.", "County": "Pierce", "City": "Madigan Army Medical Center", "URL": "https://www.mamc.health.mil/education/graduate-medical-education/medical-library/default.aspx"}}, {"type": "Feature", "geometry": {"type": "Point", "coordinates": [46.347206, -119.281751]}, "properties": {"Name": "Pacific Northwest National Laboratory (PNNL) PubCenter", "Address": "902 Battelle Blvd", "County": "Benton", "City": "Pacific Northwest National Laboratory (PNNL) PubCenter", "URL": "nan"}}]}